$GPGGA,213303.000,4222.6820,N,07230.0036,W,1,10,0.8,71.1,M,-33.8,M,,0000*5C
$GPGSA,A,3,13,32,30,14,29,03,31,23,06,16,,,1.4,0.8,1.1*30
$GPRMC,213303.000,A,4222.6820,N,07230.0036,W,30.03,14.24,130412,,*1E
$GPGGA,213304.000,4222.6903,N,07230.0008,W,1,10,0.8,71.2,M,-33.8,M,,0000*55
$GPGSA,A,3,13,32,30,14,29,03,31,23,06,16,,,1.4,0.8,1.1*30
$GPRMC,213304.000,A,4222.6903,N,07230.0008,W,30.26,13.82,130412,,*18
$GPGGA,213305.000,4222.6986,N,07229.9982,W,1,10,0.8,71.2,M,-33.8,M,,0000*53
$GPGSA,A,3,13,32,30,14,29,03,31,23,06,16,,,1.4,0.8,1.1*30
$GPRMC,213305.000,A,4222.6986,N,07229.9982,W,30.10,12.50,130412,,*15
$GPGGA,213306.000,4222.7070,N,07229.9958,W,1,10,0.8,71.4,M,-33.8,M,,0000*50
$GPGSA,A,3,13,32,30,14,29,03,31,23,06,16,,,1.4,0.8,1.1*30
$GPGSV,3,1,11,30,84,031,40,16,64,222,40,31,45,074,40,23,39,309,37*70
$GPGSV,3,2,11,32,27,226,35,20,26,256,,06,23,164,36,29,20,047,26*74
$GPGSV,3,3,11,03,15,178,32,13,10,315,24,14,07,140,26*40
$GPRMC,213306.000,A,4222.7070,N,07229.9958,W,30.82,11.32,130412,,*1C
$GPGGA,213307.000,4222.7155,N,07229.9937,W,1,10,0.8,71.6,M,-33.8,M,,0000*5C
$GPGSA,A,3,13,32,30,14,29,03,31,23,06,16,,,1.4,0.8,1.1*30
$GPRMC,213307.000,A,4222.7155,N,07229.9937,W,30.57,10.09,130412,,*13
$GPGGA,213308.000,4222.7240,N,07229.9917,W,1,10,0.8,71.6,M,-33.8,M,,0000*56
$GPGSA,A,3,13,32,30,14,29,03,31,23,06,16,,,1.4,0.8,1.1*30
$GPRMC,213308.000,A,4222.7240,N,07229.9917,W,30.30,9.43,130412,,*2E
$GPGGA,213309.000,4222.7324,N,07229.9900,W,1,10,0.8,71.6,M,-33.8,M,,0000*52
$GPGSA,A,3,13,32,30,14,29,03,31,23,06,16,,,1.4,0.8,1.1*30
$GPRMC,213309.000,A,4222.7324,N,07229.9900,W,30.12,8.73,130412,,*28
$GPGGA,213310.000,4222.7408,N,07229.9883,W,1,10,0.8,71.8,M,-33.8,M,,0000*57
$GPGSA,A,3,13,32,30,14,29,03,31,23,06,16,,,1.4,0.8,1.1*30
$GPRMC,213310.000,A,4222.7408,N,07229.9883,W,30.39,8.14,130412,,*2B
$GPGGA,213311.000,4222.7493,N,07229.9867,W,1,10,0.8,71.8,M,-33.8,M,,0000*5E
$GPGSA,A,3,13,32,30,14,29,03,31,23,06,16,,,1.4,0.8,1.1*30
$GPGSV,3,1,11,30,84,031,40,16,64,222,40,31,45,074,39,23,39,309,38*71
$GPGSV,3,2,11,32,27,226,33,20,26,256,,06,23,164,33,29,20,047,29*78
$GPGSV,3,3,11,03,15,178,32,13,10,315,28,14,07,140,21*4B
$GPRMC,213311.000,A,4222.7493,N,07229.9867,W,30.81,7.98,130412,,*2A
$GPGGA,213312.000,4222.7580,N,07229.9851,W,1,10,0.8,71.9,M,-33.8,M,,0000*5A
$GPGSA,A,3,13,32,30,14,29,03,31,23,06,16,,,1.4,0.8,1.1*30
$GPRMC,213312.000,A,4222.7580,N,07229.9851,W,31.32,7.79,130412,,*29
$GPGGA,213313.000,4222.7668,N,07229.9834,W,1,10,0.8,72.0,M,-33.8,M,,0000*57
$GPGSA,A,3,13,32,30,14,29,03,31,23,06,16,,,1.4,0.8,1.1*30
$GPRMC,213313.000,A,4222.7668,N,07229.9834,W,32.27,8.45,130412,,*29
$GPGGA,213314.000,4222.7758,N,07229.9815,W,1,10,0.8,72.0,M,-33.8,M,,0000*51
$GPGSA,A,3,13,32,30,14,29,03,31,23,06,16,,,1.4,0.8,1.1*30
$GPRMC,213314.000,A,4222.7758,N,07229.9815,W,32.63,8.65,130412,,*2D
$GPGGA,213315.000,4222.7852,N,07229.9798,W,1,10,0.8,71.9,M,-33.8,M,,0000*55
$GPGSA,A,3,13,32,30,14,29,03,31,23,06,16,,,1.4,0.8,1.1*30
$GPRMC,213315.000,A,4222.7852,N,07229.9798,W,34.06,7.39,130412,,*20
$GPGGA,213316.000,4222.7948,N,07229.9781,W,1,10,0.8,71.9,M,-33.8,M,,0000*54
$GPGSA,A,3,13,32,30,14,29,03,31,23,06,16,,,1.4,0.8,1.1*30
$GPGSV,3,1,11,30,84,031,40,16,64,222,40,31,45,074,38,23,39,309,38*70
$GPGSV,3,2,11,32,27,226,28,20,26,256,,06,23,164,34,29,20,047,33*7E
$GPGSV,3,3,11,03,15,178,26,13,10,315,26,14,07,140,22*43
$GPRMC,213316.000,A,4222.7948,N,07229.9781,W,34.75,7.33,130412,,*2F
$GPGGA,213317.000,4222.8047,N,07229.9764,W,1,10,0.8,71.9,M,-33.8,M,,0000*57
$GPGSA,A,3,13,32,30,14,29,03,31,23,06,16,,,1.4,0.8,1.1*30
$GPRMC,213317.000,A,4222.8047,N,07229.9764,W,35.73,7.10,130412,,*2A
$GPGGA,213318.000,4222.8147,N,07229.9747,W,1,10,0.8,72.0,M,-33.8,M,,0000*52
$GPGSA,A,3,13,32,30,14,29,03,31,23,06,16,,,1.4,0.8,1.1*30
$GPRMC,213318.000,A,4222.8147,N,07229.9747,W,36.21,6.87,130412,,*2E
$GPGGA,213319.000,4222.8249,N,07229.9730,W,1,10,0.8,72.1,M,-33.8,M,,0000*5F
$GPGSA,A,3,13,32,30,14,29,03,31,23,06,16,,,1.4,0.8,1.1*30
$GPRMC,213319.000,A,4222.8249,N,07229.9730,W,36.31,7.18,130412,,*24
$GPGGA,213320.000,4222.8351,N,07229.9713,W,1,10,0.8,72.5,M,-33.8,M,,0000*58
$GPGSA,A,3,13,32,30,14,29,03,31,23,06,16,,,1.4,0.8,1.1*30
$GPRMC,213320.000,A,4222.8351,N,07229.9713,W,36.57,7.10,130412,,*2F
$GPGGA,213321.000,4222.8453,N,07229.9696,W,1,10,0.8,73.0,M,-33.8,M,,0000*54
$GPGSA,A,3,13,32,30,14,29,03,31,23,06,16,,,1.4,0.8,1.1*30
$GPGSV,3,1,11,30,84,031,40,16,64,222,40,31,45,074,39,23,39,309,38*71
$GPGSV,3,2,11,32,27,226,34,20,26,256,,06,23,164,37,29,20,047,34*77
$GPGSV,3,3,11,03,15,178,36,13,10,315,16,14,07,140,31*43
$GPRMC,213321.000,A,4222.8453,N,07229.9696,W,36.52,6.80,130412,,*2A
$GPGGA,213322.000,4222.8555,N,07229.9680,W,1,10,0.8,73.7,M,-33.8,M,,0000*50
$GPGSA,A,3,13,32,30,14,29,03,31,23,06,16,,,1.4,0.8,1.1*30
$GPRMC,213322.000,A,4222.8555,N,07229.9680,W,36.43,6.57,130412,,*23
$GPGGA,213323.000,4222.8656,N,07229.9665,W,1,10,0.8,74.4,M,-33.8,M,,0000*5E
$GPGSA,A,3,13,32,30,14,29,03,31,23,06,16,,,1.4,0.8,1.1*30
$GPRMC,213323.000,A,4222.8656,N,07229.9665,W,36.19,6.55,130412,,*24
$GPGGA,213324.000,4222.8756,N,07229.9649,W,1,10,0.8,75.2,M,-33.8,M,,0000*51
$GPGSA,A,3,13,32,30,14,29,03,31,23,06,16,,,1.4,0.8,1.1*30
$GPRMC,213324.000,A,4222.8756,N,07229.9649,W,35.92,6.77,130412,,*2C
$GPGGA,213325.000,4222.8856,N,07229.9634,W,1,10,0.8,76.0,M,-33.8,M,,0000*54
$GPGSA,A,3,13,32,30,14,29,03,31,23,06,16,,,1.4,0.8,1.1*30
$GPRMC,213325.000,A,4222.8856,N,07229.9634,W,35.55,6.63,130412,,*26
$GPGGA,213326.000,4222.8955,N,07229.9618,W,1,10,0.8,76.9,M,-33.8,M,,0000*52
$GPGSA,A,3,13,32,30,14,29,03,31,23,06,16,,,1.4,0.8,1.1*30
$GPGSV,3,1,11,30,84,031,40,16,64,222,39,31,45,074,39,23,39,309,38*7F
$GPGSV,3,2,11,32,27,226,36,20,26,256,,06,23,164,36,29,20,047,32*72
$GPGSV,3,3,11,03,15,178,36,13,10,315,25,14,07,140,23*40
$GPRMC,213326.000,A,4222.8955,N,07229.9618,W,35.41,6.91,130412,,*21
$GPGGA,213327.000,4222.9052,N,07229.9602,W,1,10,0.8,77.8,M,-33.8,M,,0000*57
$GPGSA,A,3,13,32,30,14,29,03,31,23,06,16,,,1.4,0.8,1.1*30
$GPRMC,213327.000,A,4222.9052,N,07229.9602,W,35.08,7.33,130412,,*20
$GPGGA,213328.000,4222.9150,N,07229.9585,W,1,10,0.8,78.8,M,-33.8,M,,0000*58
$GPGSA,A,3,13,32,30,14,29,03,31,23,06,16,,,1.4,0.8,1.1*30
$GPRMC,213328.000,A,4222.9150,N,07229.9585,W,35.01,7.23,130412,,*28
$GPGGA,213329.000,4222.9247,N,07229.9568,W,1,10,0.8,79.4,M,-33.8,M,,0000*52
$GPGSA,A,3,13,32,30,14,29,03,31,23,06,16,,,1.4,0.8,1.1*30
$GPRMC,213329.000,A,4222.9247,N,07229.9568,W,34.85,7.49,130412,,*2E
$GPGGA,213330.000,4222.9343,N,07229.9551,W,1,10,0.8,80.1,M,-33.8,M,,0000*56
$GPGSA,A,3,13,32,30,14,29,03,31,23,06,16,,,1.4,0.8,1.1*30
$GPRMC,213330.000,A,4222.9343,N,07229.9551,W,34.77,7.60,130412,,*2F
$GPGGA,213331.000,4222.9440,N,07229.9534,W,1,10,0.8,80.6,M,-33.8,M,,0000*57
$GPGSA,A,3,13,32,30,14,29,03,31,23,06,16,,,1.4,0.8,1.1*30
$GPGSV,3,1,11,30,84,031,40,16,64,222,39,31,45,074,39,23,39,309,39*7E
$GPGSV,3,2,11,32,27,226,33,20,26,256,,06,23,164,37,29,20,047,33*77
$GPGSV,3,3,11,03,15,178,35,13,10,315,32,14,07,140,28*4E
$GPRMC,213331.000,A,4222.9440,N,07229.9534,W,34.96,7.52,130412,,*27
$GPGGA,213332.000,4222.9537,N,07229.9517,W,1,10,0.8,81.2,M,-33.8,M,,0000*51
$GPGSA,A,3,13,32,30,14,29,03,31,23,06,16,,,1.4,0.8,1.1*30
$GPRMC,213332.000,A,4222.9537,N,07229.9517,W,35.10,7.26,130412,,*28
$GPGGA,213333.000,4222.9635,N,07229.9501,W,1,10,0.8,81.6,M,-33.8,M,,0000*52
$GPGSA,A,3,13,32,30,14,29,03,31,23,06,16,,,1.4,0.8,1.1*30
$GPRMC,213333.000,A,4222.9635,N,07229.9501,W,35.38,6.76,130412,,*21
$GPGGA,213334.000,4222.9734,N,07229.9485,W,1,10,0.8,81.8,M,-33.8,M,,0000*56
$GPGSA,A,3,13,32,30,14,29,03,31,23,06,16,,,1.4,0.8,1.1*30
$GPRMC,213334.000,A,4222.9734,N,07229.9485,W,35.65,6.85,130412,,*2F
$GPGGA,213335.000,4222.9834,N,07229.9470,W,1,10,0.8,82.1,M,-33.8,M,,0000*58
$GPGSA,A,3,13,32,30,14,29,03,31,23,06,16,,,1.4,0.8,1.1*30
$GPRMC,213335.000,A,4222.9834,N,07229.9470,W,36.19,6.60,130412,,*28
$GPGGA,213336.000,4222.9935,N,07229.9453,W,1,10,0.8,82.3,M,-33.8,M,,0000*58
$GPGSA,A,3,13,32,30,14,29,03,31,23,06,16,,,1.4,0.8,1.1*30
$GPGSV,3,1,11,30,84,031,40,16,64,222,40,31,45,074,40,23,39,309,39*7E
$GPGSV,3,2,11,32,27,226,35,20,26,256,,06,23,164,38,29,20,047,33*7E
$GPGSV,3,3,11,03,15,178,36,13,10,315,18,14,07,140,30*4C
$GPRMC,213336.000,A,4222.9935,N,07229.9453,W,36.72,6.97,130412,,*2F
$GPGGA,213337.000,4223.0037,N,07229.9437,W,1,10,0.8,82.5,M,-33.8,M,,0000*5E
$GPGSA,A,3,13,32,30,14,29,03,31,23,06,16,,,1.4,0.8,1.1*30
$GPRMC,213337.000,A,4223.0037,N,07229.9437,W,37.21,7.02,130412,,*25
$GPGGA,213338.000,4223.0141,N,07229.9419,W,1,10,0.8,82.6,M,-33.8,M,,0000*5E
$GPGSA,A,3,13,32,30,14,29,03,31,23,06,16,,,1.4,0.8,1.1*30
$GPRMC,213338.000,A,4223.0141,N,07229.9419,W,37.60,6.99,130412,,*20
$GPGGA,213339.000,4223.0245,N,07229.9402,W,1,10,0.8,82.9,M,-33.8,M,,0000*5D
$GPGSA,A,3,13,32,30,14,29,03,31,23,06,16,,,1.4,0.8,1.1*30
$GPRMC,213339.000,A,4223.0245,N,07229.9402,W,37.93,6.99,130412,,*20
$GPGGA,213340.000,4223.0350,N,07229.9385,W,1,10,0.8,83.1,M,-33.8,M,,0000*57
$GPGSA,A,3,13,32,30,14,29,03,31,23,06,16,,,1.4,0.8,1.1*30
$GPRMC,213340.000,A,4223.0350,N,07229.9385,W,37.86,7.11,130412,,*26
$GPGGA,213341.000,4223.0456,N,07229.9366,W,1,10,0.8,83.2,M,-33.8,M,,0000*59
$GPGSA,A,3,13,32,30,14,29,03,31,23,06,16,,,1.4,0.8,1.1*30
$GPGSV,3,1,11,30,84,031,40,16,64,222,40,31,45,074,40,23,39,309,40*70
$GPGSV,3,2,11,32,27,226,35,20,26,256,,06,23,164,38,29,20,047,32*7F
$GPGSV,3,3,11,03,15,178,35,13,10,315,17,14,07,140,30*40
$GPRMC,213341.000,A,4223.0456,N,07229.9366,W,38.34,7.57,130412,,*2F
$GPGGA,213342.000,4223.0563,N,07229.9346,W,1,10,0.8,83.1,M,-33.8,M,,0000*5C
$GPGSA,A,3,13,32,30,14,29,03,31,23,06,16,,,1.4,0.8,1.1*30
$GPRMC,213342.000,A,4223.0563,N,07229.9346,W,38.93,8.30,130412,,*2A
$GPGGA,213343.000,4223.0671,N,07229.9324,W,1,10,0.8,83.0,M,-33.8,M,,0000*58
$GPGSA,A,3,13,32,30,14,29,03,31,23,06,16,,,1.4,0.8,1.1*30
$GPRMC,213343.000,A,4223.0671,N,07229.9324,W,39.34,9.28,130412,,*2B
$GPGGA,213344.000,4223.0779,N,07229.9299,W,1,10,0.8,82.9,M,-33.8,M,,0000*59
$GPGSA,A,3,13,32,30,14,29,03,31,23,06,16,,,1.4,0.8,1.1*30
$GPRMC,213344.000,A,4223.0779,N,07229.9299,W,39.55,9.90,130412,,*26
$GPGGA,213345.000,4223.0888,N,07229.9272,W,1,10,0.8,82.9,M,-33.8,M,,0000*5C
$GPGSA,A,3,13,32,30,14,29,03,31,23,06,16,,,1.4,0.8,1.1*30
$GPRMC,213345.000,A,4223.0888,N,07229.9272,W,39.33,10.74,130412,,*11
$GPGGA,213346.000,4223.0995,N,07229.9244,W,1,10,0.8,82.9,M,-33.8,M,,0000*57
$GPGSA,A,3,13,32,30,14,29,03,31,23,06,16,,,1.4,0.8,1.1*30
$GPGSV,3,1,11,30,84,031,41,16,64,222,40,31,45,074,41,23,39,309,41*71
$GPGSV,3,2,11,32,27,226,36,20,26,256,,06,23,164,38,29,20,047,33*7D
$GPGSV,3,3,11,03,15,178,36,13,10,315,16,14,07,140,34*46
$GPRMC,213346.000,A,4223.0995,N,07229.9244,W,38.81,11.72,130412,,*15
$GPGGA,213347.000,4223.1099,N,07229.9213,W,1,10,0.8,83.1,M,-33.8,M,,0000*59
$GPGSA,A,3,13,32,30,14,29,03,31,23,06,16,,,1.4,0.8,1.1*30
$GPRMC,213347.000,A,4223.1099,N,07229.9213,W,38.16,12.79,130412,,*14
$GPGGA,213348.000,4223.1201,N,07229.9181,W,1,10,0.8,83.3,M,-33.8,M,,0000*5F
$GPGSA,A,3,13,32,30,14,29,03,31,23,06,16,,,1.4,0.8,1.1*30
$GPRMC,213348.000,A,4223.1201,N,07229.9181,W,37.32,13.28,130412,,*1C
$GPGGA,213349.000,4223.1302,N,07229.9150,W,1,10,0.8,83.5,M,-33.8,M,,0000*56
$GPGSA,A,3,13,32,30,14,29,03,31,23,06,16,,,1.4,0.8,1.1*30
$GPRMC,213349.000,A,4223.1302,N,07229.9150,W,36.57,12.55,130412,,*1A
$GPGGA,213350.000,4223.1400,N,07229.9120,W,1,10,0.8,83.7,M,-33.8,M,,0000*5E
$GPGSA,A,3,13,32,30,14,29,03,31,23,06,16,,,1.4,0.8,1.1*30
$GPRMC,213350.000,A,4223.1400,N,07229.9120,W,35.73,12.91,130412,,*1D
$GPGGA,213351.000,4223.1496,N,07229.9090,W,1,10,0.8,83.9,M,-33.8,M,,0000*54
$GPGSA,A,3,13,32,30,14,29,03,31,23,06,16,,,1.4,0.8,1.1*30
$GPGSV,3,1,11,30,84,031,41,16,64,222,41,31,45,074,40,23,39,309,41*71
$GPGSV,3,2,11,32,27,226,37,20,26,256,,06,23,164,33,29,20,047,35*71
$GPGSV,3,3,11,03,15,178,28,13,10,315,25,14,07,140,30*4D
$GPRMC,213351.000,A,4223.1496,N,07229.9090,W,35.18,13.06,130412,,*1B
$GPGGA,213352.000,4223.1590,N,07229.9061,W,1,10,0.8,84.1,M,-33.8,M,,0000*51
$GPGSA,A,3,13,32,30,14,29,03,31,23,06,16,,,1.4,0.8,1.1*30
$GPRMC,213352.000,A,4223.1590,N,07229.9061,W,34.45,12.80,130412,,*17
$GPGGA,213353.000,4223.1683,N,07229.9032,W,1,10,0.8,84.3,M,-33.8,M,,0000*55
$GPGSA,A,3,13,32,30,14,29,03,31,23,06,16,,,1.4,0.8,1.1*30
$GPRMC,213353.000,A,4223.1683,N,07229.9032,W,34.40,13.06,130412,,*1B
$GPGGA,213354.000,4223.1776,N,07229.9002,W,1,10,0.8,84.6,M,-33.8,M,,0000*5F
$GPGSA,A,3,13,32,30,14,29,03,31,23,06,16,,,1.4,0.8,1.1*30
$GPRMC,213354.000,A,4223.1776,N,07229.9002,W,34.55,13.63,130412,,*13
$GPGGA,213355.000,4223.1869,N,07229.8971,W,1,10,0.8,85.0,M,-33.8,M,,0000*54
$GPGSA,A,3,13,32,30,14,29,03,31,23,06,16,,,1.4,0.8,1.1*30
$GPRMC,213355.000,A,4223.1869,N,07229.8971,W,34.45,13.87,130412,,*14
$GPGGA,213356.000,4223.1959,N,07229.8942,W,1,10,0.8,85.4,M,-33.8,M,,0000*51
$GPGSA,A,3,13,32,30,14,29,03,31,23,06,16,,,1.4,0.8,1.1*30
$GPGSV,3,1,11,30,84,031,41,16,64,222,40,31,45,074,40,23,39,309,41*70
$GPGSV,3,2,11,32,27,226,37,20,26,256,,06,23,164,37,29,20,047,35*75
$GPGSV,3,3,11,03,15,178,38,13,10,315,27,14,07,140,32*4C
$GPRMC,213356.000,A,4223.1959,N,07229.8942,W,32.07,13.70,130412,,*1D
$GPGGA,213357.000,4223.2038,N,07229.8916,W,1,10,0.8,85.7,M,-33.8,M,,0000*5F
$GPGSA,A,3,13,32,30,14,29,03,31,23,06,16,,,1.4,0.8,1.1*30
$GPRMC,213357.000,A,4223.2038,N,07229.8916,W,27.12,13.03,130412,,*14
$GPGGA,213358.000,4223.2103,N,07229.8896,W,1,10,0.8,86.0,M,-33.8,M,,0000*54
$GPGSA,A,3,13,32,30,14,29,03,31,23,06,16,,,1.4,0.8,1.1*30
$GPRMC,213358.000,A,4223.2103,N,07229.8896,W,21.67,12.85,130412,,*10
$GPGGA,213359.000,4223.2151,N,07229.8884,W,1,10,0.8,86.5,M,-33.8,M,,0000*54
$GPGSA,A,3,13,32,30,14,29,03,31,23,06,16,,,1.4,0.8,1.1*30
$GPRMC,213359.000,A,4223.2151,N,07229.8884,W,15.66,9.57,130412,,*26
$GPGGA,213400.000,4223.2185,N,07229.8888,W,1,10,0.8,86.6,M,-33.8,M,,0000*59
$GPGSA,A,3,13,32,30,14,29,03,31,23,06,16,,,1.4,0.8,1.1*30
$GPRMC,213400.000,A,4223.2185,N,07229.8888,W,11.49,350.62,130412,,*28
$GPGGA,213401.000,4223.2209,N,07229.8909,W,1,10,0.8,86.8,M,-33.8,M,,0000*59
$GPGSA,A,3,13,32,30,14,29,03,31,23,06,16,,,1.4,0.8,1.1*30
$GPGSV,3,1,11,30,84,031,41,16,64,222,40,31,45,074,41,23,39,309,41*71
$GPGSV,3,2,11,32,27,226,37,20,26,256,,06,23,164,37,29,20,047,29*78
$GPGSV,3,3,11,03,15,178,37,13,10,315,19,14,07,140,32*4E
$GPRMC,213401.000,A,4223.2209,N,07229.8909,W,10.61,319.66,130412,,*24
$GPGGA,213402.000,4223.2224,N,07229.8947,W,1,10,0.8,87.3,M,-33.8,M,,0000*55
$GPGSA,A,3,13,32,30,14,29,03,31,23,06,16,,,1.4,0.8,1.1*30
$GPRMC,213402.000,A,4223.2224,N,07229.8947,W,11.88,295.13,130412,,*23
$GPGGA,213403.000,4223.2231,N,07229.8999,W,1,10,0.8,88.0,M,-33.8,M,,0000*5F
$GPGSA,A,3,13,32,30,14,29,03,31,23,06,16,,,1.4,0.8,1.1*30
$GPRMC,213403.000,A,4223.2231,N,07229.8999,W,14.49,282.27,130412,,*2C
$GPGGA,213404.000,4223.2236,N,07229.9061,W,1,10,0.8,88.9,M,-33.8,M,,0000*59
$GPGSA,A,3,13,32,30,14,29,03,31,23,06,16,,,1.4,0.8,1.1*30
$GPRMC,213404.000,A,4223.2236,N,07229.9061,W,16.76,281.14,130412,,*2E
$GPGGA,213405.000,4223.2243,N,07229.9131,W,1,10,0.8,89.8,M,-33.8,M,,0000*5E
$GPGSA,A,3,13,32,30,14,29,03,31,23,06,16,,,1.4,0.8,1.1*30
$GPRMC,213405.000,A,4223.2243,N,07229.9131,W,18.99,281.42,130412,,*25
$GPGGA,213406.000,4223.2252,N,07229.9207,W,1,10,0.8,90.6,M,-33.8,M,,0000*5D
$GPGSA,A,3,13,32,30,14,29,03,31,23,06,16,,,1.4,0.8,1.1*30
$GPGSV,3,1,11,30,84,031,40,16,64,222,40,31,45,074,41,23,39,309,38*7E
$GPGSV,3,2,11,32,27,226,32,20,26,256,,06,23,164,31,29,20,047,39*7A
$GPGSV,3,3,11,03,15,178,32,13,10,315,21,14,07,140,25*46
$GPRMC,213406.000,A,4223.2252,N,07229.9207,W,20.90,282.02,130412,,*25
$GPGGA,213407.000,4223.2263,N,07229.9290,W,1,10,0.8,91.4,M,-33.8,M,,0000*53
$GPGSA,A,3,13,32,30,14,29,03,31,23,06,16,,,1.4,0.8,1.1*30
$GPRMC,213407.000,A,4223.2263,N,07229.9290,W,22.52,282.58,130412,,*2B
$GPGGA,213408.000,4223.2277,N,07229.9377,W,1,10,0.8,92.4,M,-33.8,M,,0000*52
$GPGSA,A,3,13,32,30,14,29,03,31,23,06,16,,,1.4,0.8,1.1*30
$GPRMC,213408.000,A,4223.2277,N,07229.9377,W,23.98,284.09,130412,,*2C
$GPGGA,213409.000,4223.2292,N,07229.9467,W,1,10,0.8,93.3,M,-33.8,M,,0000*58
$GPGSA,A,3,13,32,30,14,29,03,31,23,06,16,,,1.4,0.8,1.1*30
$GPRMC,213409.000,A,4223.2292,N,07229.9467,W,24.66,284.11,130412,,*2F
$GPGGA,213410.000,4223.2307,N,07229.9559,W,1,10,0.8,94.1,M,-33.8,M,,0000*54
$GPGSA,A,3,13,32,30,14,29,03,31,23,06,16,,,1.4,0.8,1.1*30
$GPRMC,213410.000,A,4223.2307,N,07229.9559,W,24.84,283.93,130412,,*27
$GPGGA,213411.000,4223.2323,N,07229.9651,W,1,10,0.8,94.8,M,-33.8,M,,0000*51
$GPGSA,A,3,13,32,30,14,29,03,31,23,06,16,,,1.4,0.8,1.1*30
$GPGSV,3,1,11,30,84,031,40,16,64,222,39,31,45,074,41,23,39,309,38*70
$GPGSV,3,2,11,32,27,226,32,20,26,256,,06,23,164,31,29,20,047,39*7A
$GPGSV,3,3,11,03,15,178,30,13,10,315,28,14,07,140,17*4C
$GPRMC,213411.000,A,4223.2323,N,07229.9651,W,24.82,284.18,130412,,*29
$GPGGA,213412.000,4223.2340,N,07229.9743,W,1,10,0.8,95.4,M,-33.8,M,,0000*58
$GPGSA,A,3,13,32,30,14,29,03,31,23,06,16,,,1.4,0.8,1.1*30
$GPRMC,213412.000,A,4223.2340,N,07229.9743,W,25.13,285.28,130412,,*26
$GPGGA,213413.000,4223.2358,N,07229.9837,W,1,10,0.8,95.8,M,-33.8,M,,0000*50
$GPGSA,A,3,13,32,30,14,29,03,31,23,06,16,,,1.4,0.8,1.1*30
$GPRMC,213413.000,A,4223.2358,N,07229.9837,W,25.76,286.15,130412,,*2C
$GPGGA,213414.000,4223.2379,N,07229.9932,W,1,10,0.8,96.3,M,-33.8,M,,0000*58
$GPGSA,A,3,13,32,30,14,29,03,31,23,06,16,,,1.4,0.8,1.1*30
$GPRMC,213414.000,A,4223.2379,N,07229.9932,W,26.54,287.45,130412,,*2B
$GPGGA,213415.000,4223.2402,N,07230.0030,W,1,10,0.8,96.7,M,-33.8,M,,0000*5C
$GPGSA,A,3,13,32,30,14,29,03,31,23,06,16,,,1.4,0.8,1.1*30
$GPRMC,213415.000,A,4223.2402,N,07230.0030,W,27.33,289.07,130412,,*23
$GPGGA,213416.000,4223.2428,N,07230.0129,W,1,10,0.8,97.2,M,-33.8,M,,0000*5A
$GPGSA,A,3,13,32,30,14,29,03,31,23,06,16,,,1.4,0.8,1.1*30
$GPGSV,3,1,11,30,84,031,40,16,64,222,39,31,45,074,41,23,39,309,39*71
$GPGSV,3,2,11,32,27,226,33,20,26,256,,06,23,164,34,29,20,047,39*7E
$GPGSV,3,3,11,03,15,178,33,13,10,315,28,14,07,140,28*43
$GPRMC,213416.000,A,4223.2428,N,07230.0129,W,28.05,290.83,130412,,*2F
$GPGGA,213417.000,4223.2456,N,07230.0228,W,1,10,0.8,97.8,M,-33.8,M,,0000*5A
$GPGSA,A,3,13,32,30,14,29,03,31,23,06,16,,,1.4,0.8,1.1*30
$GPRMC,213417.000,A,4223.2456,N,07230.0228,W,28.36,291.82,130412,,*25
$GPGGA,213418.000,4223.2485,N,07230.0329,W,1,10,0.8,98.5,M,-33.8,M,,0000*59
$GPGSA,A,3,13,32,30,14,29,03,31,23,06,16,,,1.4,0.8,1.1*30
$GPRMC,213418.000,A,4223.2485,N,07230.0329,W,28.51,291.81,130412,,*26
$GPGGA,213419.000,4223.2514,N,07230.0429,W,1,10,0.8,99.1,M,-33.8,M,,0000*53
$GPGSA,A,3,13,32,30,14,29,03,31,23,06,16,,,1.4,0.8,1.1*30
$GPRMC,213419.000,A,4223.2514,N,07230.0429,W,28.49,291.48,130412,,*25
$GPGGA,213420.000,4223.2543,N,07230.0530,W,1,10,0.8,99.7,M,-33.8,M,,0000*54
$GPGSA,A,3,13,32,30,14,29,03,31,23,06,16,,,1.4,0.8,1.1*30
$GPRMC,213420.000,A,4223.2543,N,07230.0530,W,28.81,290.41,130412,,*28
$GPGGA,213421.000,4223.2569,N,07230.0634,W,1,10,0.8,100.4,M,-33.8,M,,0000*68
$GPGSA,A,3,13,32,30,14,29,03,31,23,06,16,,,1.4,0.8,1.1*30
$GPGSV,3,1,11,30,84,031,40,16,64,222,35,31,45,074,41,23,39,309,39*7D
$GPGSV,3,2,11,32,27,226,27,20,26,256,,06,23,164,30,29,20,047,39*7F
$GPGSV,3,3,11,03,15,178,20,13,10,315,29,14,07,140,26*4E
$GPRMC,213421.000,A,4223.2569,N,07230.0634,W,29.08,288.38,130412,,*21
$GPGGA,213422.000,4223.2593,N,07230.0740,W,1,10,0.8,101.1,M,-33.8,M,,0000*68
$GPGSA,A,3,13,32,30,14,29,03,31,23,06,16,,,1.4,0.8,1.1*30
$GPRMC,213422.000,A,4223.2593,N,07230.0740,W,29.22,285.70,130412,,*2C
$GPGGA,213423.000,4223.2612,N,07230.0847,W,1,10,0.8,101.9,M,-33.8,M,,0000*63
$GPGSA,A,3,13,32,30,14,29,03,31,23,06,16,,,1.4,0.8,1.1*30
$GPRMC,213423.000,A,4223.2612,N,07230.0847,W,29.40,283.16,130412,,*2D
$GPGGA,213424.000,4223.2628,N,07230.0957,W,1,10,0.8,102.4,M,-33.8,M,,0000*63
$GPGSA,A,3,13,32,30,14,29,03,31,23,06,16,,,1.4,0.8,1.1*30
$GPRMC,213424.000,A,4223.2628,N,07230.0957,W,29.56,280.42,130412,,*26
$GPGGA,213425.000,4223.2641,N,07230.1067,W,1,10,0.8,102.9,M,-33.8,M,,0000*6B
$GPGSA,A,3,13,32,30,14,29,03,31,23,06,16,,,1.4,0.8,1.1*30
$GPRMC,213425.000,A,4223.2641,N,07230.1067,W,29.71,278.48,130412,,*2B
$GPGGA,213426.000,4223.2650,N,07230.1180,W,1,10,0.8,103.0,M,-33.8,M,,0000*68
$GPGSA,A,3,13,32,30,14,29,03,31,23,06,16,,,1.4,0.8,1.1*30
$GPGSV,3,1,11,30,84,031,40,16,64,222,36,31,45,074,41,23,39,309,39*7E
$GPGSV,3,2,11,32,27,226,31,20,26,256,,06,23,164,25,29,20,047,39*7C
$GPGSV,3,3,11,03,15,178,19,13,10,315,29,14,07,140,13*42
$GPRMC,213426.000,A,4223.2650,N,07230.1180,W,30.15,276.05,130412,,*2D
$GPGGA,213427.000,4223.2657,N,07230.1296,W,1,10,0.8,103.0,M,-33.8,M,,0000*6A
$GPGSA,A,3,13,32,30,14,29,03,31,23,06,16,,,1.4,0.8,1.1*30
$GPRMC,213427.000,A,4223.2657,N,07230.1296,W,30.99,276.19,130412,,*26
$GPGGA,213428.000,4223.2664,N,07230.1415,W,1,09,0.9,102.3,M,-33.8,M,,0000*63
$GPGSA,A,3,13,32,30,29,03,31,23,06,16,,,,1.5,0.9,1.3*37
$GPRMC,213428.000,A,4223.2664,N,07230.1415,W,32.12,276.68,130412,,*23
$GPGGA,213429.000,4223.2670,N,07230.1538,W,1,09,0.9,101.5,M,-33.8,M,,0000*6C
$GPGSA,A,3,13,32,30,29,03,31,23,06,16,,,,1.5,0.9,1.3*37
$GPRMC,213429.000,A,4223.2670,N,07230.1538,W,32.97,275.69,130412,,*26
$GPGGA,213430.000,4223.2674,N,07230.1663,W,1,09,0.9,100.2,M,-33.8,M,,0000*6B
$GPGSA,A,3,13,32,30,29,03,31,23,06,16,,,,1.5,0.9,1.3*37
$GPRMC,213430.000,A,4223.2674,N,07230.1663,W,33.40,273.91,130412,,*2D
$GPGGA,213431.000,4223.2677,N,07230.1790,W,1,09,0.9,99.2,M,-33.8,M,,0000*55
$GPGSA,A,3,13,32,30,29,03,31,23,06,16,,,,1.5,0.9,1.3*37
$GPGSV,3,1,11,30,84,031,40,16,64,222,37,31,45,074,41,23,39,309,39*7F
$GPGSV,3,2,11,32,27,226,30,20,26,256,09,06,23,164,33,29,20,047,38*72
$GPGSV,3,3,11,03,15,178,30,13,10,315,30,14,07,140,*43
$GPRMC,213431.000,A,4223.2677,N,07230.1790,W,33.86,273.65,130412,,*23
$GPGGA,213432.000,4223.2680,N,07230.1919,W,1,09,0.9,98.0,M,-33.8,M,,0000*52
$GPGSA,A,3,13,32,30,29,03,31,23,06,16,,,,1.5,0.9,1.3*37
$GPRMC,213432.000,A,4223.2680,N,07230.1919,W,34.03,272.53,130412,,*29
$GPGGA,213433.000,4223.2682,N,07230.2044,W,1,09,0.9,97.1,M,-33.8,M,,0000*5D
$GPGSA,A,3,13,32,30,29,03,31,23,06,16,,,,1.5,0.9,1.3*37
$GPRMC,213433.000,A,4223.2682,N,07230.2044,W,32.31,272.24,130412,,*2F
$GPGGA,213434.000,4223.2684,N,07230.2161,W,1,10,0.8,96.3,M,-33.8,M,,0000*50
$GPGSA,A,3,13,32,30,20,29,03,31,23,06,16,,,1.5,0.8,1.3*34
$GPRMC,213434.000,A,4223.2684,N,07230.2161,W,29.53,272.80,130412,,*28
$GPGGA,213435.000,4223.2685,N,07230.2268,W,1,10,0.8,95.6,M,-33.8,M,,0000*5C
$GPGSA,A,3,13,32,30,20,29,03,31,23,06,16,,,1.5,0.8,1.3*34
$GPRMC,213435.000,A,4223.2685,N,07230.2268,W,27.15,272.98,130412,,*27
$GPGGA,213436.000,4223.2686,N,07230.2369,W,1,10,0.8,95.0,M,-33.8,M,,0000*5A
$GPGSA,A,3,13,32,30,20,29,03,31,23,06,16,,,1.5,0.8,1.3*34
$GPGSV,3,1,11,30,84,031,40,16,64,222,38,31,45,074,41,23,39,309,40*7E
$GPGSV,3,2,11,32,27,226,33,20,26,256,29,06,23,164,37,29,20,047,39*76
$GPGSV,3,3,11,03,15,178,39,13,10,315,27,14,07,140,*4C
$GPRMC,213436.000,A,4223.2686,N,07230.2369,W,26.25,271.81,130412,,*2E
$GPGGA,213437.000,4223.2686,N,07230.2467,W,1,10,0.8,95.0,M,-33.8,M,,0000*52
$GPGSA,A,3,13,32,30,20,29,03,31,23,06,16,,,1.5,0.8,1.3*34
$GPRMC,213437.000,A,4223.2686,N,07230.2467,W,26.32,271.27,130412,,*2C
$GPGGA,213438.000,4223.2686,N,07230.2566,W,1,09,0.9,95.3,M,-33.8,M,,0000*57
$GPGSA,A,3,13,32,30,20,29,31,23,06,16,,,,1.6,0.9,1.4*32
$GPRMC,213438.000,A,4223.2686,N,07230.2566,W,26.43,270.91,130412,,*29
$GPGGA,213439.000,4223.2688,N,07230.2666,W,1,10,0.8,95.9,M,-33.8,M,,0000*58
$GPGSA,A,3,13,32,30,20,29,03,31,23,06,16,,,1.5,0.8,1.3*34
$GPRMC,213439.000,A,4223.2688,N,07230.2666,W,26.92,271.73,130412,,*24
$GPGGA,213440.000,4223.2689,N,07230.2769,W,1,10,0.8,96.3,M,-33.8,M,,0000*50
$GPGSA,A,3,13,32,30,20,29,03,31,23,06,16,,,1.5,0.8,1.3*34
$GPRMC,213440.000,A,4223.2689,N,07230.2769,W,27.22,271.23,130412,,*2A
$GPGGA,213441.000,4223.2689,N,07230.2872,W,1,10,0.8,96.9,M,-33.8,M,,0000*5E
$GPGSA,A,3,13,32,30,20,29,03,31,23,06,16,,,1.5,0.8,1.3*34
$GPGSV,3,1,11,30,84,031,40,16,64,222,38,31,45,074,41,23,39,309,40*7E
$GPGSV,3,2,11,32,27,226,33,20,26,256,31,06,23,164,37,29,20,047,34*72
$GPGSV,3,3,11,03,15,178,27,13,10,315,26,14,07,140,*42
$GPRMC,213441.000,A,4223.2689,N,07230.2872,W,27.54,270.34,130412,,*28
$GPGGA,213442.000,4223.2690,N,07230.2975,W,1,09,0.9,97.8,M,-33.8,M,,0000*5A
$GPGSA,A,3,13,32,30,29,03,31,23,06,16,,,,1.5,0.9,1.3*37
$GPRMC,213442.000,A,4223.2690,N,07230.2975,W,27.54,270.99,130412,,*22
$GPGGA,213443.000,4223.2691,N,07230.3079,W,1,10,0.8,98.6,M,-33.8,M,,0000*56
$GPGSA,A,3,13,32,30,20,29,03,31,23,06,16,,,1.5,0.8,1.3*34
$GPRMC,213443.000,A,4223.2691,N,07230.3079,W,27.48,270.83,130412,,*20
$GPGGA,213444.000,4223.2691,N,07230.3183,W,1,09,0.9,99.7,M,-33.8,M,,0000*5C
$GPGSA,A,3,13,32,30,29,03,31,23,06,16,,,,1.5,0.9,1.3*37
$GPRMC,213444.000,A,4223.2691,N,07230.3183,W,27.66,270.94,130412,,*29
$GPGGA,213445.000,4223.2692,N,07230.3286,W,1,10,0.8,101.0,M,-33.8,M,,0000*66
$GPGSA,A,3,13,32,30,20,29,03,31,23,06,16,,,1.5,0.8,1.3*34
$GPRMC,213445.000,A,4223.2692,N,07230.3286,W,27.66,271.05,130412,,*24
$GPGGA,213446.000,4223.2694,N,07230.3391,W,1,10,0.8,102.4,M,-33.8,M,,0000*63
$GPGSA,A,3,13,32,30,20,29,03,31,23,06,16,,,1.5,0.8,1.3*34
$GPGSV,3,1,11,30,84,031,40,16,64,222,38,31,45,074,36,23,39,309,38*71
$GPGSV,3,2,11,32,27,226,34,20,26,256,30,06,23,164,37,29,20,047,35*75
$GPGSV,3,3,11,03,15,178,32,13,10,315,21,14,07,140,*41
$GPRMC,213446.000,A,4223.2694,N,07230.3391,W,28.10,272.10,130412,,*2F
$GPGGA,213447.000,4223.2697,N,07230.3497,W,1,10,0.8,103.7,M,-33.8,M,,0000*62
$GPGSA,A,3,13,32,30,20,29,03,31,23,06,16,,,1.5,0.8,1.3*34
$GPRMC,213447.000,A,4223.2697,N,07230.3497,W,28.22,272.26,130412,,*28
$GPGGA,213448.000,4223.2699,N,07230.3603,W,1,10,0.8,105.0,M,-33.8,M,,0000*6D
$GPGSA,A,3,13,32,30,20,29,03,31,23,06,16,,,1.5,0.8,1.3*34
$GPRMC,213448.000,A,4223.2699,N,07230.3603,W,28.64,271.54,130412,,*22
$GPGGA,213449.000,4223.2701,N,07230.3711,W,1,10,0.8,106.2,M,-33.8,M,,0000*6F
$GPGSA,A,3,13,32,30,20,29,03,31,23,06,16,,,1.5,0.8,1.3*34
$GPRMC,213449.000,A,4223.2701,N,07230.3711,W,28.98,272.09,130412,,*29
$GPGGA,213450.000,4223.2705,N,07230.3822,W,1,10,0.8,106.9,M,-33.8,M,,0000*67
$GPGSA,A,3,13,32,30,20,29,03,31,23,06,16,,,1.5,0.8,1.3*34
$GPRMC,213450.000,A,4223.2705,N,07230.3822,W,29.35,273.42,130412,,*22
$GPGGA,213451.000,4223.2713,N,07230.3934,W,1,10,0.8,107.9,M,-33.8,M,,0000*66
$GPGSA,A,3,13,32,30,20,29,03,31,23,06,16,,,1.5,0.8,1.3*34
$GPGSV,3,1,11,30,84,031,40,16,64,222,38,31,45,074,39,23,39,309,37*71
$GPGSV,3,2,11,32,27,226,34,20,26,256,31,06,23,164,36,29,20,047,38*78
$GPGSV,3,3,11,03,15,178,32,13,10,315,23,14,07,140,*43
$GPRMC,213451.000,A,4223.2713,N,07230.3934,W,30.51,276.55,130412,,*2B
$GPGGA,213452.000,4223.2722,N,07230.4050,W,1,10,0.8,108.5,M,-33.8,M,,0000*68
$GPGSA,A,3,13,32,30,20,29,03,31,23,06,16,,,1.5,0.8,1.3*34
$GPRMC,213452.000,A,4223.2722,N,07230.4050,W,31.29,276.87,130412,,*27
$GPGGA,213453.000,4223.2734,N,07230.4169,W,1,10,0.8,109.0,M,-33.8,M,,0000*61
$GPGSA,A,3,13,32,30,20,29,03,31,23,06,16,,,1.5,0.8,1.3*34
$GPRMC,213453.000,A,4223.2734,N,07230.4169,W,32.83,278.26,130412,,*2C
$GPGGA,213454.000,4223.2748,N,07230.4294,W,1,10,0.8,109.5,M,-33.8,M,,0000*69
$GPGSA,A,3,13,32,30,20,29,03,31,23,06,16,,,1.5,0.8,1.3*34
$GPRMC,213454.000,A,4223.2748,N,07230.4294,W,34.08,278.64,130412,,*22
$GPGGA,213455.000,4223.2763,N,07230.4423,W,1,10,0.8,109.9,M,-33.8,M,,0000*67
$GPGSA,A,3,13,32,30,20,29,03,31,23,06,16,,,1.5,0.8,1.3*34
$GPRMC,213455.000,A,4223.2763,N,07230.4423,W,35.08,278.82,130412,,*29
$GPGGA,213456.000,4223.2778,N,07230.4556,W,1,10,0.8,110.4,M,-33.8,M,,0000*68
$GPGSA,A,3,13,32,30,20,29,03,31,23,06,16,,,1.5,0.8,1.3*34
$GPGSV,3,1,11,30,84,031,40,16,64,222,39,31,45,074,40,23,39,309,39*70
$GPGSV,3,2,11,32,27,226,28,20,26,256,33,06,23,164,27,29,20,047,40*78
$GPGSV,3,3,11,03,15,178,24,13,10,315,23,14,07,140,*44
$GPRMC,213456.000,A,4223.2778,N,07230.4556,W,36.04,278.70,130412,,*21
$GPGGA,213457.000,4223.2793,N,07230.4690,W,1,10,0.8,110.8,M,-33.8,M,,0000*69
$GPGSA,A,3,13,32,30,20,29,03,31,23,06,16,,,1.5,0.8,1.3*34
$GPRMC,213457.000,A,4223.2793,N,07230.4690,W,35.89,279.00,130412,,*2C
$GPGGA,213458.000,4223.2809,N,07230.4822,W,1,10,0.8,111.4,M,-33.8,M,,0000*60
$GPGSA,A,3,13,32,30,20,29,03,31,23,06,16,,,1.5,0.8,1.3*34
$GPRMC,213458.000,A,4223.2809,N,07230.4822,W,35.18,279.44,130412,,*20
$GPGGA,213459.000,4223.2824,N,07230.4953,W,1,10,0.8,112.0,M,-33.8,M,,0000*6E
$GPGSA,A,3,13,32,30,20,29,03,31,23,06,16,,,1.5,0.8,1.3*34
$GPRMC,213459.000,A,4223.2824,N,07230.4953,W,35.33,278.71,130412,,*27
$GPGGA,213500.000,4223.2840,N,07230.5084,W,1,10,0.8,112.7,M,-33.8,M,,0000*64
$GPGSA,A,3,13,32,30,20,29,03,31,23,06,16,,,1.5,0.8,1.3*34
$GPRMC,213500.000,A,4223.2840,N,07230.5084,W,35.32,279.24,130412,,*2A
$GPGGA,213501.000,4223.2854,N,07230.5215,W,1,10,0.8,113.3,M,-33.8,M,,0000*6F
$GPGSA,A,3,13,32,30,20,29,03,31,23,06,16,,,1.5,0.8,1.3*34
$GPGSV,3,1,11,30,84,031,41,16,64,222,39,31,45,074,40,23,39,309,39*71
$GPGSV,3,2,11,32,27,226,36,20,26,256,31,06,23,164,32,29,20,047,33*75
$GPGSV,3,3,11,03,15,178,24,13,10,315,23,14,07,140,*44
$GPRMC,213501.000,A,4223.2854,N,07230.5215,W,35.05,278.05,130412,,*22
$GPGGA,213502.000,4223.2867,N,07230.5345,W,1,10,0.8,113.8,M,-33.8,M,,0000*63
$GPGSA,A,3,13,32,30,20,29,03,31,23,06,16,,,1.5,0.8,1.3*34
$GPRMC,213502.000,A,4223.2867,N,07230.5345,W,34.80,278.12,130412,,*2F
$GPGGA,213503.000,4223.2880,N,07230.5473,W,1,10,0.8,114.3,M,-33.8,M,,0000*65
$GPGSA,A,3,13,32,30,20,29,03,31,23,06,16,,,1.5,0.8,1.3*34
$GPRMC,213503.000,A,4223.2880,N,07230.5473,W,34.02,278.69,130412,,*23
$GPGGA,213504.000,4223.2893,N,07230.5598,W,1,10,0.8,115.2,M,-33.8,M,,0000*64
$GPGSA,A,3,13,32,30,20,29,03,31,23,06,16,,,1.5,0.8,1.3*34
$GPRMC,213504.000,A,4223.2893,N,07230.5598,W,33.40,277.76,130412,,*22
$GPGGA,213505.000,4223.2905,N,07230.5721,W,1,09,0.9,116.0,M,-33.8,M,,0000*63
$GPGSA,A,3,32,30,20,29,03,31,23,06,16,,,,1.8,0.9,1.5*3C
$GPRMC,213505.000,A,4223.2905,N,07230.5721,W,32.78,277.70,130412,,*21
$GPGGA,213506.000,4223.2916,N,07230.5842,W,1,10,0.8,117.0,M,-33.8,M,,0000*60
$GPGSA,A,3,13,32,30,20,29,03,31,23,06,16,,,1.5,0.8,1.3*34
$GPGSV,3,1,11,30,84,031,41,16,64,222,39,31,45,074,41,23,39,309,40*7E
$GPGSV,3,2,11,32,27,226,34,20,26,256,28,06,23,164,31,29,20,047,38*77
$GPGSV,3,3,11,03,15,178,28,13,10,315,16,14,07,140,*4E
$GPRMC,213506.000,A,4223.2916,N,07230.5842,W,32.54,276.92,130412,,*29
$GPGGA,213507.000,4223.2926,N,07230.5963,W,1,10,0.8,117.9,M,-33.8,M,,0000*69
$GPGSA,A,3,13,32,30,20,29,03,31,23,06,16,,,1.5,0.8,1.3*34
$GPRMC,213507.000,A,4223.2926,N,07230.5963,W,32.26,277.58,130412,,*2B
$GPGGA,213508.000,4223.2939,N,07230.6082,W,1,10,0.8,118.9,M,-33.8,M,,0000*62
$GPGSA,A,3,13,32,30,20,29,03,31,23,06,16,,,1.5,0.8,1.3*34
$GPRMC,213508.000,A,4223.2939,N,07230.6082,W,32.44,278.39,130412,,*23
$GPGGA,213509.000,4223.2951,N,07230.6201,W,1,10,0.8,119.9,M,-33.8,M,,0000*65
$GPGSA,A,3,13,32,30,20,29,03,31,23,06,16,,,1.5,0.8,1.3*34
$GPRMC,213509.000,A,4223.2951,N,07230.6201,W,32.14,277.52,130412,,*22
$GPGGA,213510.000,4223.2961,N,07230.6319,W,1,10,0.8,120.9,M,-33.8,M,,0000*6C
$GPGSA,A,3,13,32,30,20,29,03,31,23,06,16,,,1.5,0.8,1.3*34
$GPRMC,213510.000,A,4223.2961,N,07230.6319,W,31.42,276.36,130412,,*22
$GPGGA,213511.000,4223.2972,N,07230.6435,W,1,10,0.8,121.7,M,-33.8,M,,0000*69
$GPGSA,A,3,13,32,30,20,29,03,31,23,06,16,,,1.5,0.8,1.3*34
$GPGSV,3,1,11,30,84,031,40,16,64,222,39,31,45,074,38,23,39,309,34*72
$GPGSV,3,2,11,32,27,226,29,20,26,256,33,06,23,164,31,29,20,047,34*7D
$GPGSV,3,3,11,03,15,178,28,13,10,315,17,14,07,140,*4F
$GPRMC,213511.000,A,4223.2972,N,07230.6435,W,30.69,278.15,130412,,*2F
$GPGGA,213512.000,4223.2983,N,07230.6543,W,1,10,0.8,122.7,M,-33.8,M,,0000*67
$GPGSA,A,3,13,32,30,20,29,03,31,23,06,16,,,1.5,0.8,1.3*34
$GPRMC,213512.000,A,4223.2983,N,07230.6543,W,28.10,278.05,130412,,*24
$GPGGA,213513.000,4223.2994,N,07230.6646,W,1,10,0.8,123.5,M,-33.8,M,,0000*65
$GPGSA,A,3,13,32,30,20,29,03,31,23,06,16,,,1.5,0.8,1.3*34
$GPRMC,213513.000,A,4223.2994,N,07230.6646,W,28.00,278.75,130412,,*23
$GPGGA,213514.000,4223.3004,N,07230.6751,W,1,10,0.8,124.5,M,-33.8,M,,0000*63
$GPGSA,A,3,13,32,30,20,29,03,31,23,06,16,,,1.5,0.8,1.3*34
$GPRMC,213514.000,A,4223.3004,N,07230.6751,W,28.59,277.14,130412,,*26
$GPGGA,213515.000,4223.3015,N,07230.6859,W,1,10,0.8,125.1,M,-33.8,M,,0000*60
$GPGSA,A,3,13,32,30,20,29,03,31,23,06,16,,,1.5,0.8,1.3*34
$GPRMC,213515.000,A,4223.3015,N,07230.6859,W,29.23,278.19,130412,,*2E
$GPGGA,213516.000,4223.3027,N,07230.6969,W,1,09,0.9,125.8,M,-33.8,M,,0000*60
$GPGSA,A,3,13,32,30,29,03,31,23,06,16,,,,1.5,0.9,1.3*37
$GPGSV,3,1,11,30,84,031,40,16,64,222,39,31,45,074,37,23,39,309,33*7A
$GPGSV,3,2,11,32,27,226,35,20,26,256,,06,23,164,32,29,20,047,28*7E
$GPGSV,3,3,11,03,15,178,30,13,10,315,18,14,07,140,*49
$GPRMC,213516.000,A,4223.3027,N,07230.6969,W,29.79,278.61,130412,,*2E
$GPGGA,213517.000,4223.3038,N,07230.7078,W,1,09,0.9,126.3,M,-33.8,M,,0000*6F
$GPGSA,A,3,13,32,30,29,03,31,23,06,16,,,,1.5,0.9,1.3*37
$GPRMC,213517.000,A,4223.3038,N,07230.7078,W,29.47,277.47,130412,,*2F
$GPGGA,213518.000,4223.3050,N,07230.7192,W,1,09,0.9,126.3,M,-33.8,M,,0000*6B
$GPGSA,A,3,32,30,20,29,03,31,23,06,16,,,,1.8,0.9,1.5*3C
$GPRMC,213518.000,A,4223.3050,N,07230.7192,W,30.72,277.20,130412,,*24
$GPGGA,213519.000,4223.3060,N,07230.7306,W,1,09,0.9,126.2,M,-33.8,M,,0000*67
$GPGSA,A,3,32,30,20,29,03,31,23,06,16,,,,1.8,0.9,1.5*3C
$GPRMC,213519.000,A,4223.3060,N,07230.7306,W,30.15,275.90,130412,,*21
$GPGGA,213520.000,4223.3071,N,07230.7425,W,1,10,0.9,125.3,M,-33.8,M,,0000*61
$GPGSA,A,3,14,32,30,20,29,03,31,23,06,16,,,1.6,0.9,1.4*36
$GPRMC,213520.000,A,4223.3071,N,07230.7425,W,31.76,276.79,130412,,*2D
$GPGGA,213521.000,4223.3081,N,07230.7547,W,1,10,0.9,124.1,M,-33.8,M,,0000*69
$GPGSA,A,3,14,32,30,20,29,03,31,23,06,16,,,1.6,0.9,1.4*36
$GPGSV,3,1,11,30,84,031,41,16,64,222,40,31,45,074,37,23,39,309,38*7E
$GPGSV,3,2,11,32,27,226,36,20,26,256,39,06,23,164,36,29,20,047,27*7C
$GPGSV,3,3,11,03,15,178,34,13,10,315,,14,07,140,22*44
$GPRMC,213521.000,A,4223.3081,N,07230.7547,W,32.31,274.14,130412,,*2F
$GPGGA,213522.000,4223.3090,N,07230.7676,W,1,10,0.9,122.4,M,-33.8,M,,0000*68
$GPGSA,A,3,14,32,30,20,29,03,31,23,06,16,,,1.6,0.9,1.4*36
$GPRMC,213522.000,A,4223.3090,N,07230.7676,W,34.64,274.01,130412,,*2F
$GPGGA,213523.000,4223.3094,N,07230.7810,W,1,10,0.9,120.8,M,-33.8,M,,0000*6D
$GPGSA,A,3,14,32,30,20,29,03,31,23,06,16,,,1.6,0.9,1.4*36
$GPRMC,213523.000,A,4223.3094,N,07230.7810,W,35.58,269.26,130412,,*23
$GPGGA,213524.000,4223.3090,N,07230.7948,W,1,10,0.9,119.1,M,-33.8,M,,0000*61
$GPGSA,A,3,14,32,30,20,29,03,31,23,06,16,,,1.6,0.9,1.4*36
$GPRMC,213524.000,A,4223.3090,N,07230.7948,W,36.27,265.96,130412,,*20
$GPGGA,213525.000,4223.3080,N,07230.8086,W,1,10,0.9,117.8,M,-33.8,M,,0000*62
$GPGSA,A,3,14,32,30,20,29,03,31,23,06,16,,,1.6,0.9,1.4*36
$GPRMC,213525.000,A,4223.3080,N,07230.8086,W,36.47,262.34,130412,,*2D
$GPGGA,213526.000,4223.3062,N,07230.8222,W,1,10,0.9,116.9,M,-33.8,M,,0000*61
$GPGSA,A,3,14,32,30,20,29,03,31,23,06,16,,,1.6,0.9,1.4*36
$GPGSV,3,1,11,30,83,032,40,16,66,224,39,31,44,076,39,23,41,308,37*7D
$GPGSV,3,2,11,32,26,225,36,20,25,254,38,06,25,164,33,29,19,046,34*74
$GPGSV,3,3,11,03,17,178,36,13,11,315,,14,06,140,32*45
$GPRMC,213526.000,A,4223.3062,N,07230.8222,W,36.14,258.39,130412,,*2C
$GPGGA,213527.000,4223.3037,N,07230.8351,W,1,10,0.9,116.0,M,-33.8,M,,0000*6C
$GPGSA,A,3,14,32,30,20,29,03,31,23,06,16,,,1.6,0.9,1.4*36
$GPRMC,213527.000,A,4223.3037,N,07230.8351,W,34.59,253.35,130412,,*24
$GPGGA,213528.000,4223.3006,N,07230.8471,W,1,10,0.9,115.3,M,-33.8,M,,0000*64
$GPGSA,A,3,14,32,30,20,29,03,31,23,06,16,,,1.6,0.9,1.4*36
$GPRMC,213528.000,A,4223.3006,N,07230.8471,W,32.29,249.38,130412,,*2B
$GPGGA,213529.000,4223.2973,N,07230.8579,W,1,10,0.9,114.9,M,-33.8,M,,0000*6D
$GPGSA,A,3,14,32,30,20,29,03,31,23,06,16,,,1.6,0.9,1.4*36
$GPRMC,213529.000,A,4223.2973,N,07230.8579,W,30.04,247.79,130412,,*2F
$GPGGA,213530.000,4223.2943,N,07230.8682,W,1,10,0.9,114.5,M,-33.8,M,,0000*6D
$GPGSA,A,3,14,32,30,20,29,03,31,23,06,16,,,1.6,0.9,1.4*36
$GPRMC,213530.000,A,4223.2943,N,07230.8682,W,28.79,250.69,130412,,*27
$GPGGA,213531.000,4223.2922,N,07230.8785,W,1,10,0.9,114.2,M,-33.8,M,,0000*6A
$GPGSA,A,3,14,32,30,20,29,03,31,23,06,16,,,1.6,0.9,1.4*36
$GPGSV,3,1,11,30,83,032,41,16,66,224,40,31,44,076,42,23,41,308,38*71
$GPGSV,3,2,11,32,26,225,36,20,25,254,35,06,25,164,39,29,19,046,34*73
$GPGSV,3,3,11,03,17,178,37,13,11,315,,14,06,140,35*43
$GPRMC,213531.000,A,4223.2922,N,07230.8785,W,28.28,258.65,130412,,*27
$GPGGA,213532.000,4223.2915,N,07230.8891,W,1,10,0.9,113.9,M,-33.8,M,,0000*6B
$GPGSA,A,3,14,32,30,20,29,03,31,23,06,16,,,1.6,0.9,1.4*36
$GPRMC,213532.000,A,4223.2915,N,07230.8891,W,28.17,268.42,130412,,*20
$GPGGA,213533.000,4223.2917,N,07230.8997,W,1,10,0.9,114.1,M,-33.8,M,,0000*60
$GPGSA,A,3,14,32,30,20,29,03,31,23,06,16,,,1.6,0.9,1.4*36
$GPRMC,213533.000,A,4223.2917,N,07230.8997,W,28.51,273.93,130412,,*20
$GPGGA,213534.000,4223.2923,N,07230.9104,W,1,10,0.9,114.6,M,-33.8,M,,0000*64
$GPGSA,A,3,14,32,30,20,29,03,31,23,06,16,,,1.6,0.9,1.4*36
$GPRMC,213534.000,A,4223.2923,N,07230.9104,W,28.47,274.85,130412,,*24
$GPGGA,213535.000,4223.2930,N,07230.9208,W,1,10,0.9,115.2,M,-33.8,M,,0000*6D
$GPGSA,A,3,14,32,30,20,29,03,31,23,06,16,,,1.6,0.9,1.4*36
$GPRMC,213535.000,A,4223.2930,N,07230.9208,W,27.50,274.81,130412,,*25
$GPGGA,213536.000,4223.2936,N,07230.9308,W,1,10,0.9,115.9,M,-33.8,M,,0000*62
$GPGSA,A,3,14,32,30,20,29,03,31,23,06,16,,,1.6,0.9,1.4*36
$GPGSV,3,1,11,30,83,032,41,16,66,224,41,31,44,076,41,23,41,308,38*73
$GPGSV,3,2,11,32,26,225,37,20,25,254,36,06,25,164,38,29,19,046,38*7C
$GPGSV,3,3,11,03,17,178,34,13,11,315,,14,06,140,23*47
$GPRMC,213536.000,A,4223.2936,N,07230.9308,W,26.32,274.68,130412,,*23
$GPGGA,213537.000,4223.2942,N,07230.9404,W,1,10,0.9,116.4,M,-33.8,M,,0000*65
$GPGSA,A,3,14,32,30,20,29,03,31,23,06,16,,,1.6,0.9,1.4*36
$GPRMC,213537.000,A,4223.2942,N,07230.9404,W,24.99,274.54,130412,,*26
$GPGGA,213538.000,4223.2947,N,07230.9495,W,1,10,0.9,117.0,M,-33.8,M,,0000*62
$GPGSA,A,3,14,32,30,20,29,03,31,23,06,16,,,1.6,0.9,1.4*36
$GPRMC,213538.000,A,4223.2947,N,07230.9495,W,23.96,274.28,130412,,*27
$GPGGA,213539.000,4223.2952,N,07230.9582,W,1,10,0.9,117.6,M,-33.8,M,,0000*66
$GPGSA,A,3,14,32,30,20,29,03,31,23,06,16,,,1.6,0.9,1.4*36
$GPRMC,213539.000,A,4223.2952,N,07230.9582,W,23.23,273.73,130412,,*22
$GPGGA,213540.000,4223.2956,N,07230.9668,W,1,10,0.9,118.1,M,-33.8,M,,0000*63
$GPGSA,A,3,14,32,30,20,29,03,31,23,06,16,,,1.6,0.9,1.4*36
$GPRMC,213540.000,A,4223.2956,N,07230.9668,W,22.60,273.65,130412,,*2E
$GPGGA,213541.000,4223.2961,N,07230.9750,W,1,10,0.9,118.6,M,-33.8,M,,0000*6B
$GPGSA,A,3,14,32,30,20,29,03,31,23,06,16,,,1.6,0.9,1.4*36
$GPGSV,3,1,11,30,83,032,41,16,66,224,41,31,44,076,41,23,41,308,41*7D
$GPGSV,3,2,11,32,26,225,37,20,25,254,32,06,25,164,38,29,19,046,38*78
$GPGSV,3,3,11,03,17,178,32,13,11,315,,14,06,140,21*43
$GPRMC,213541.000,A,4223.2961,N,07230.9750,W,22.10,274.48,130412,,*2E
$GPGGA,213542.000,4223.2966,N,07230.9831,W,1,10,0.9,119.0,M,-33.8,M,,0000*60
$GPGSA,A,3,14,32,30,20,29,03,31,23,06,16,,,1.6,0.9,1.4*36
$GPRMC,213542.000,A,4223.2966,N,07230.9831,W,21.12,274.94,130412,,*22
$GPGGA,213543.000,4223.2972,N,07230.9907,W,1,10,0.9,119.4,M,-33.8,M,,0000*64
$GPGSA,A,3,14,32,30,20,29,03,31,23,06,16,,,1.6,0.9,1.4*36
$GPRMC,213543.000,A,4223.2972,N,07230.9907,W,20.04,275.60,130412,,*2E
$GPGGA,213544.000,4223.2977,N,07230.9975,W,1,10,0.9,119.6,M,-33.8,M,,0000*61
$GPGSA,A,3,14,32,30,20,29,03,31,23,06,16,,,1.6,0.9,1.4*36
$GPRMC,213544.000,A,4223.2977,N,07230.9975,W,16.96,276.52,130412,,*25
$GPGGA,213545.000,4223.2982,N,07231.0030,W,1,10,0.9,119.8,M,-33.8,M,,0000*64
$GPGSA,A,3,14,32,30,20,29,03,31,23,06,16,,,1.6,0.9,1.4*36
$GPRMC,213545.000,A,4223.2982,N,07231.0030,W,13.40,277.35,130412,,*20
$GPGGA,213546.000,4223.2987,N,07231.0072,W,1,10,0.9,119.9,M,-33.8,M,,0000*65
$GPGSA,A,3,14,32,30,20,29,03,31,23,06,16,,,1.6,0.9,1.4*36
$GPGSV,3,1,11,30,83,032,41,16,66,224,41,31,44,076,38,23,41,308,40*72
$GPGSV,3,2,11,32,26,225,37,20,25,254,29,06,25,164,36,29,19,046,38*7C
$GPGSV,3,3,11,03,17,178,27,13,11,315,,14,06,140,24*42
$GPRMC,213546.000,A,4223.2987,N,07231.0072,W,10.14,278.80,130412,,*23
$GPGGA,213547.000,4223.2992,N,07231.0102,W,1,10,0.9,120.0,M,-33.8,M,,0000*65
$GPGSA,A,3,14,32,30,20,29,03,31,23,06,16,,,1.6,0.9,1.4*36
$GPRMC,213547.000,A,4223.2992,N,07231.0102,W,7.17,283.68,130412,,*17
$GPGGA,213548.000,4223.2997,N,07231.0122,W,1,10,0.9,120.0,M,-33.8,M,,0000*6D
$GPGSA,A,3,14,32,30,20,29,03,31,23,06,16,,,1.6,0.9,1.4*36
$GPRMC,213548.000,A,4223.2997,N,07231.0122,W,5.20,291.70,130412,,*13
$GPGGA,213549.000,4223.3004,N,07231.0137,W,1,10,0.9,120.3,M,-33.8,M,,0000*69
$GPGSA,A,3,14,32,30,20,29,03,31,23,06,16,,,1.6,0.9,1.4*36
$GPRMC,213549.000,A,4223.3004,N,07231.0137,W,5.32,304.91,130412,,*15
$GPGGA,213550.000,4223.3017,N,07231.0154,W,1,10,0.9,120.7,M,-33.8,M,,0000*62
$GPGSA,A,3,14,32,30,20,29,03,31,23,06,16,,,1.6,0.9,1.4*36
$GPRMC,213550.000,A,4223.3017,N,07231.0154,W,7.96,320.66,130412,,*18
$GPGGA,213551.000,4223.3039,N,07231.0168,W,1,10,0.9,121.2,M,-33.8,M,,0000*64
$GPGSA,A,3,14,32,30,20,29,03,31,23,06,16,,,1.6,0.9,1.4*36
$GPGSV,3,1,11,30,83,032,41,16,66,224,41,31,44,076,41,23,41,308,34*7F
$GPGSV,3,2,11,32,26,225,30,20,25,254,32,06,25,164,37,29,19,046,26*7F
$GPGSV,3,3,11,03,17,178,37,13,11,315,,14,06,140,22*45
$GPRMC,213551.000,A,4223.3039,N,07231.0168,W,10.41,340.71,130412,,*26
$GPGGA,213552.000,4223.3071,N,07231.0174,W,1,10,0.9,121.8,M,-33.8,M,,0000*6C
$GPGSA,A,3,14,32,30,20,29,03,31,23,06,16,,,1.6,0.9,1.4*36
$GPRMC,213552.000,A,4223.3071,N,07231.0174,W,12.96,355.69,130412,,*21
$GPGGA,213553.000,4223.3114,N,07231.0171,W,1,10,0.9,122.4,M,-33.8,M,,0000*65
$GPGSA,A,3,14,32,30,20,29,03,31,23,06,16,,,1.6,0.9,1.4*36
$GPRMC,213553.000,A,4223.3114,N,07231.0171,W,16.69,3.58,130412,,*21
$GPGGA,213554.000,4223.3165,N,07231.0164,W,1,10,0.9,123.1,M,-33.8,M,,0000*64
$GPGSA,A,3,14,32,30,20,29,03,31,23,06,16,,,1.6,0.9,1.4*36
$GPRMC,213554.000,A,4223.3165,N,07231.0164,W,19.39,4.28,130412,,*2E
$GPGGA,213555.000,4223.3224,N,07231.0155,W,1,10,0.9,124.0,M,-33.8,M,,0000*67
$GPGSA,A,3,14,32,30,20,29,03,31,23,06,16,,,1.6,0.9,1.4*36
$GPRMC,213555.000,A,4223.3224,N,07231.0155,W,21.68,5.31,130412,,*2D
$GPGGA,213556.000,4223.3287,N,07231.0146,W,1,10,0.9,124.6,M,-33.8,M,,0000*69
$GPGSA,A,3,14,32,30,20,29,03,31,23,06,16,,,1.6,0.9,1.4*36
$GPGSV,3,1,11,30,83,032,42,16,66,224,41,31,44,076,38,23,41,308,38*7E
$GPGSV,3,2,11,32,26,225,33,20,25,254,36,06,25,164,34,29,19,046,35*79
$GPGSV,3,3,11,03,17,178,38,13,11,315,,14,06,140,21*49
$GPRMC,213556.000,A,4223.3287,N,07231.0146,W,23.14,4.45,130412,,*2E
$GPGGA,213557.000,4223.3355,N,07231.0137,W,1,10,0.9,125.4,M,-33.8,M,,0000*63
$GPGSA,A,3,14,32,30,20,29,03,31,23,06,16,,,1.6,0.9,1.4*36
$GPRMC,213557.000,A,4223.3355,N,07231.0137,W,24.77,3.36,130412,,*26
$GPGGA,213558.000,4223.3427,N,07231.0130,W,1,10,0.9,125.9,M,-33.8,M,,0000*64
$GPGSA,A,3,14,32,30,20,29,03,31,23,06,16,,,1.6,0.9,1.4*36
$GPRMC,213558.000,A,4223.3427,N,07231.0130,W,25.76,3.08,130412,,*21
$GPGGA,213559.000,4223.3502,N,07231.0123,W,1,10,0.9,126.5,M,-33.8,M,,0000*6E
$GPGSA,A,3,14,32,30,20,29,03,31,23,06,16,,,1.6,0.9,1.4*36
$GPRMC,213559.000,A,4223.3502,N,07231.0123,W,26.59,2.78,130412,,*2C
$GPGGA,213600.000,4223.3579,N,07231.0116,W,1,10,0.9,126.9,M,-33.8,M,,0000*67
$GPGSA,A,3,14,32,30,20,29,03,31,23,06,16,,,1.6,0.9,1.4*36
$GPRMC,213600.000,A,4223.3579,N,07231.0116,W,27.31,2.50,130412,,*2C
$GPGGA,213601.000,4223.3657,N,07231.0111,W,1,10,0.9,127.5,M,-33.8,M,,0000*63
$GPGSA,A,3,14,32,30,20,29,03,31,23,06,16,,,1.6,0.9,1.4*36
$GPGSV,3,1,11,30,83,032,42,16,66,224,41,31,44,076,40,23,41,308,38*71
$GPGSV,3,2,11,32,26,225,33,20,25,254,32,06,25,164,39,29,19,046,30*75
$GPGSV,3,3,11,03,17,178,38,13,11,315,,14,06,140,23*4B
$GPRMC,213601.000,A,4223.3657,N,07231.0111,W,28.27,2.00,130412,,*28
$GPGGA,213602.000,4223.3738,N,07231.0107,W,1,10,0.9,128.0,M,-33.8,M,,0000*65
$GPGSA,A,3,14,32,30,20,29,03,31,23,06,16,,,1.6,0.9,1.4*36
$GPRMC,213602.000,A,4223.3738,N,07231.0107,W,29.02,1.64,130412,,*23
$GPGGA,213603.000,4223.3821,N,07231.0103,W,1,10,0.9,128.4,M,-33.8,M,,0000*63
$GPGSA,A,3,14,32,30,20,29,03,31,23,06,16,,,1.6,0.9,1.4*36
$GPRMC,213603.000,A,4223.3821,N,07231.0103,W,29.70,1.86,130412,,*28
$GPGGA,213604.000,4223.3905,N,07231.0100,W,1,10,0.9,129.0,M,-33.8,M,,0000*65
$GPGSA,A,3,14,32,30,20,29,03,31,23,06,16,,,1.6,0.9,1.4*36
$GPRMC,213604.000,A,4223.3905,N,07231.0100,W,29.77,0.63,130412,,*26
$GPGGA,213605.000,4223.3989,N,07231.0098,W,1,10,0.9,129.3,M,-33.8,M,,0000*63
$GPGSA,A,3,14,32,30,20,29,03,31,23,06,16,,,1.6,0.9,1.4*36
$GPRMC,213605.000,A,4223.3989,N,07231.0098,W,29.84,359.97,130412,,*2B
$GPGGA,213606.000,4223.4074,N,07231.0098,W,1,10,0.9,129.7,M,-33.8,M,,0000*68
$GPGSA,A,3,14,32,30,20,29,03,31,23,06,16,,,1.6,0.9,1.4*36
$GPGSV,3,1,11,30,83,032,42,16,66,224,40,31,44,076,40,23,41,308,39*71
$GPGSV,3,2,11,32,26,225,39,20,25,254,38,06,25,164,39,29,19,046,26*72
$GPGSV,3,3,11,03,17,178,39,13,11,315,,14,06,140,23*4A
$GPRMC,213606.000,A,4223.4074,N,07231.0098,W,30.10,359.90,130412,,*26
$GPGGA,213607.000,4223.4159,N,07231.0096,W,1,10,0.9,130.0,M,-33.8,M,,0000*66
$GPGSA,A,3,14,32,30,20,29,03,31,23,06,16,,,1.6,0.9,1.4*36
$GPRMC,213607.000,A,4223.4159,N,07231.0096,W,30.33,0.78,130412,,*2F
$GPGGA,213608.000,4223.4244,N,07231.0093,W,1,10,0.9,130.2,M,-33.8,M,,0000*61
$GPGSA,A,3,14,32,30,20,29,03,31,23,06,16,,,1.6,0.9,1.4*36
$GPRMC,213608.000,A,4223.4244,N,07231.0093,W,29.88,1.60,130412,,*2A
$GPGGA,213609.000,4223.4327,N,07231.0088,W,1,10,0.9,130.4,M,-33.8,M,,0000*68
$GPGSA,A,3,14,32,30,20,29,03,31,23,06,16,,,1.6,0.9,1.4*36
$GPRMC,213609.000,A,4223.4327,N,07231.0088,W,29.51,2.99,130412,,*24
$GPGGA,213610.000,4223.4410,N,07231.0081,W,1,09,0.9,130.7,M,-33.8,M,,0000*61
$GPGSA,A,3,32,30,20,29,03,31,23,06,16,,,,1.8,0.9,1.5*3C
$GPRMC,213610.000,A,4223.4410,N,07231.0081,W,29.45,3.58,130412,,*2F
$GPGGA,213611.000,4223.4492,N,07231.0074,W,1,10,0.8,130.8,M,-33.8,M,,0000*66
$GPGSA,A,3,13,32,30,20,29,03,31,23,06,16,,,1.5,0.8,1.3*34
$GPGSV,3,1,11,30,83,032,42,16,66,224,41,31,44,076,35,23,41,308,39*72
$GPGSV,3,2,11,32,26,225,34,20,25,254,22,06,25,164,34,29,19,046,27*78
$GPGSV,3,3,11,03,17,178,39,13,11,315,,14,06,140,*4B
$GPRMC,213611.000,A,4223.4492,N,07231.0074,W,29.87,4.03,130412,,*29
$GPGGA,213612.000,4223.4576,N,07231.0064,W,1,10,0.8,130.9,M,-33.8,M,,0000*6E
$GPGSA,A,3,13,32,30,20,29,03,31,23,06,16,,,1.5,0.8,1.3*34
$GPRMC,213612.000,A,4223.4576,N,07231.0064,W,30.24,4.95,130412,,*2E
$GPGGA,213613.000,4223.4660,N,07231.0053,W,1,10,0.8,130.8,M,-33.8,M,,0000*6E
$GPGSA,A,3,13,32,30,20,29,03,31,23,06,16,,,1.5,0.8,1.3*34
$GPRMC,213613.000,A,4223.4660,N,07231.0053,W,30.55,5.59,130412,,*28
$GPGGA,213614.000,4223.4745,N,07231.0042,W,1,10,0.8,130.5,M,-33.8,M,,0000*62
$GPGSA,A,3,13,32,30,20,29,03,31,23,06,16,,,1.5,0.8,1.3*34
$GPRMC,213614.000,A,4223.4745,N,07231.0042,W,30.60,5.31,130412,,*21
$GPGGA,213615.000,4223.4830,N,07231.0030,W,1,10,0.8,130.3,M,-33.8,M,,0000*6D
$GPGSA,A,3,13,32,30,20,29,03,31,23,06,16,,,1.5,0.8,1.3*34
$GPRMC,213615.000,A,4223.4830,N,07231.0030,W,30.49,5.26,130412,,*25
$GPGGA,213616.000,4223.4916,N,07231.0018,W,1,10,0.8,130.1,M,-33.8,M,,0000*63
$GPGSA,A,3,13,32,30,20,29,03,31,23,06,16,,,1.5,0.8,1.3*34
$GPGSV,3,1,11,30,83,032,42,16,66,224,40,31,44,076,36,23,41,308,39*70
$GPGSV,3,2,11,32,26,225,33,20,25,254,37,06,25,164,33,29,19,046,21*7A
$GPGSV,3,3,11,03,17,178,32,13,11,315,32,14,06,140,*41
$GPRMC,213616.000,A,4223.4916,N,07231.0018,W,30.79,6.22,130412,,*2D
$GPGGA,213617.000,4223.5001,N,07231.0005,W,1,10,0.8,129.8,M,-33.8,M,,0000*61
$GPGSA,A,3,13,32,30,20,29,03,31,23,06,16,,,1.5,0.8,1.3*34
$GPRMC,213617.000,A,4223.5001,N,07231.0005,W,30.93,6.52,130412,,*2D
$GPGGA,213618.000,4223.5087,N,07230.9992,W,1,10,0.8,129.6,M,-33.8,M,,0000*61
$GPGSA,A,3,13,32,30,20,29,03,31,23,06,16,,,1.5,0.8,1.3*34
$GPRMC,213618.000,A,4223.5087,N,07230.9992,W,31.12,7.08,130412,,*25
$GPGGA,213619.000,4223.5174,N,07230.9976,W,1,09,0.9,129.1,M,-33.8,M,,0000*69
$GPGSA,A,3,32,30,20,29,03,31,23,06,16,,,,1.8,0.9,1.5*3C
$GPRMC,213619.000,A,4223.5174,N,07230.9976,W,31.17,8.14,130412,,*24
$GPGGA,213620.000,4223.5261,N,07230.9958,W,1,09,0.9,128.5,M,-33.8,M,,0000*6D
$GPGSA,A,3,32,30,20,29,03,31,23,06,16,,,,1.8,0.9,1.5*3C
$GPRMC,213620.000,A,4223.5261,N,07230.9958,W,31.99,8.67,130412,,*27
$GPGGA,213621.000,4223.5350,N,07230.9938,W,1,09,0.9,127.9,M,-33.8,M,,0000*6A
$GPGSA,A,3,32,30,20,29,03,31,23,06,16,,,,1.8,0.9,1.5*3C
$GPGSV,3,1,11,30,83,032,42,16,66,224,41,31,44,076,36,23,41,308,40*7F
$GPGSV,3,2,11,32,26,225,34,20,25,254,36,06,25,164,26,29,19,046,28*71
$GPGSV,3,3,11,03,17,178,22,13,11,315,,14,06,140,14*44
$GPRMC,213621.000,A,4223.5350,N,07230.9938,W,32.06,9.67,130412,,*27
$GPGGA,213622.000,4223.5439,N,07230.9913,W,1,09,0.9,127.3,M,-33.8,M,,0000*62
$GPGSA,A,3,32,30,20,29,03,31,23,06,16,,,,1.8,0.9,1.5*3C
$GPRMC,213622.000,A,4223.5439,N,07230.9913,W,32.65,12.44,130412,,*1B
$GPGGA,213623.000,4223.5529,N,07230.9881,W,1,09,0.9,126.1,M,-33.8,M,,0000*6A
$GPGSA,A,3,32,30,20,29,03,31,23,06,16,,,,1.8,0.9,1.5*3C
$GPRMC,213623.000,A,4223.5529,N,07230.9881,W,33.76,15.50,130412,,*11
$GPGGA,213624.000,4223.5621,N,07230.9845,W,1,10,0.8,125.3,M,-33.8,M,,0000*66
$GPGSA,A,3,13,32,30,20,29,03,31,23,06,16,,,1.5,0.8,1.3*34
$GPRMC,213624.000,A,4223.5621,N,07230.9845,W,34.56,15.98,130412,,*14
$GPGGA,213625.000,4223.5715,N,07230.9805,W,1,10,0.8,124.6,M,-33.8,M,,0000*61
$GPGSA,A,3,13,32,30,20,29,03,31,23,06,16,,,1.5,0.8,1.3*34
$GPRMC,213625.000,A,4223.5715,N,07230.9805,W,35.10,17.59,130412,,*1B
$GPGGA,213626.000,4223.5808,N,07230.9763,W,1,10,0.8,124.1,M,-33.8,M,,0000*69
$GPGSA,A,3,13,32,30,20,29,03,31,23,06,16,,,1.5,0.8,1.3*34
$GPGSV,3,1,11,30,83,032,42,16,66,224,41,31,44,076,42,23,41,308,41*7D
$GPGSV,3,2,11,32,26,225,39,20,25,254,40,06,25,164,40,29,19,046,33*77
$GPGSV,3,3,11,03,17,178,32,13,11,315,31,14,06,140,*42
$GPRMC,213626.000,A,4223.5808,N,07230.9763,W,35.09,18.40,130412,,*1B
$GPGGA,213627.000,4223.5903,N,07230.9719,W,1,10,0.8,123.6,M,-33.8,M,,0000*6F
$GPGSA,A,3,13,32,30,20,29,03,31,23,06,16,,,1.5,0.8,1.3*34
$GPRMC,213627.000,A,4223.5903,N,07230.9719,W,35.55,18.56,130412,,*13
$GPGGA,213628.000,4223.5997,N,07230.9674,W,1,10,0.8,123.2,M,-33.8,M,,0000*63
$GPGSA,A,3,13,32,30,20,29,03,31,23,06,16,,,1.5,0.8,1.3*34
$GPRMC,213628.000,A,4223.5997,N,07230.9674,W,35.65,19.06,130412,,*1C
$GPGGA,213629.000,4223.6091,N,07230.9630,W,1,10,0.8,122.8,M,-33.8,M,,0000*65
$GPGSA,A,3,13,32,30,20,29,03,31,23,06,16,,,1.5,0.8,1.3*34
$GPRMC,213629.000,A,4223.6091,N,07230.9630,W,35.46,18.80,130412,,*1F
$GPGGA,213630.000,4223.6186,N,07230.9589,W,1,10,0.8,122.5,M,-33.8,M,,0000*66
$GPGSA,A,3,13,32,30,20,29,03,31,23,06,16,,,1.5,0.8,1.3*34
$GPRMC,213630.000,A,4223.6186,N,07230.9589,W,35.45,17.11,130412,,*15
$GPGGA,213631.000,4223.6281,N,07230.9550,W,1,10,0.8,121.9,M,-33.8,M,,0000*68
$GPGSA,A,3,13,32,30,20,29,03,31,23,06,16,,,1.5,0.8,1.3*34
$GPGSV,3,1,11,30,83,032,42,16,66,224,41,31,44,076,38,23,41,308,41*70
$GPGSV,3,2,11,32,26,225,35,20,25,254,32,06,25,164,30,29,19,046,32*78
$GPGSV,3,3,11,03,17,178,25,13,11,315,27,14,06,140,*43
$GPRMC,213631.000,A,4223.6281,N,07230.9550,W,35.59,15.76,130412,,*1A
$GPGGA,213632.000,4223.6378,N,07230.9514,W,1,10,0.8,121.1,M,-33.8,M,,0000*64
$GPGSA,A,3,13,32,30,20,29,03,31,23,06,16,,,1.5,0.8,1.3*34
$GPRMC,213632.000,A,4223.6378,N,07230.9514,W,35.80,14.15,130412,,*1E
$GPGGA,213633.000,4223.6477,N,07230.9483,W,1,10,0.8,120.4,M,-33.8,M,,0000*66
$GPGSA,A,3,13,32,30,20,29,03,31,23,06,16,,,1.5,0.8,1.3*34
$GPRMC,213633.000,A,4223.6477,N,07230.9483,W,36.59,11.57,130412,,*1C
$GPGGA,213634.000,4223.6577,N,07230.9456,W,1,10,0.8,119.9,M,-33.8,M,,0000*6F
$GPGSA,A,3,13,32,30,20,29,03,31,23,06,16,,,1.5,0.8,1.3*34
$GPRMC,213634.000,A,4223.6577,N,07230.9456,W,36.88,10.37,130412,,*19
$GPGGA,213635.000,4223.6679,N,07230.9433,W,1,10,0.8,119.1,M,-33.8,M,,0000*68
$GPGSA,A,3,13,32,30,20,29,03,31,23,06,16,,,1.5,0.8,1.3*34
$GPRMC,213635.000,A,4223.6679,N,07230.9433,W,36.76,8.80,130412,,*22
$GPGGA,213636.000,4223.6780,N,07230.9411,W,1,10,0.8,118.5,M,-33.8,M,,0000*69
$GPGSA,A,3,13,32,30,20,29,03,31,23,06,16,,,1.5,0.8,1.3*34
$GPGSV,3,1,11,30,83,032,42,16,66,224,41,31,44,076,40,23,41,308,39*70
$GPGSV,3,2,11,32,26,225,31,20,25,254,31,06,25,164,38,29,19,046,33*76
$GPGSV,3,3,11,03,17,178,36,13,11,315,30,14,06,140,*47
$GPRMC,213636.000,A,4223.6780,N,07230.9411,W,36.49,9.02,130412,,*21
$GPGGA,213637.000,4223.6881,N,07230.9389,W,1,10,0.8,117.8,M,-33.8,M,,0000*62
$GPGSA,A,3,13,32,30,20,29,03,31,23,06,16,,,1.5,0.8,1.3*34
$GPRMC,213637.000,A,4223.6881,N,07230.9389,W,36.28,9.17,130412,,*2B
$GPGGA,213638.000,4223.6980,N,07230.9366,W,1,10,0.8,117.3,M,-33.8,M,,0000*67
$GPGSA,A,3,13,32,30,20,29,03,31,23,06,16,,,1.5,0.8,1.3*34
$GPRMC,213638.000,A,4223.6980,N,07230.9366,W,35.71,9.49,130412,,*21
$GPGGA,213639.000,4223.7079,N,07230.9344,W,1,10,0.8,117.0,M,-33.8,M,,0000*6B
$GPGSA,A,3,13,32,30,20,29,03,31,23,06,16,,,1.5,0.8,1.3*34
$GPRMC,213639.000,A,4223.7079,N,07230.9344,W,35.44,8.20,130412,,*26
$GPGGA,213640.000,4223.7176,N,07230.9325,W,1,10,0.8,116.8,M,-33.8,M,,0000*65
$GPGSA,A,3,13,32,30,20,29,03,31,23,06,16,,,1.5,0.8,1.3*34
$GPRMC,213640.000,A,4223.7176,N,07230.9325,W,35.33,7.73,130412,,*28
$GPGGA,213641.000,4223.7274,N,07230.9306,W,1,09,0.9,116.7,M,-33.8,M,,0000*62
$GPGSA,A,3,32,30,20,29,03,31,23,06,16,,,,1.8,0.9,1.5*3C
$GPGSV,3,1,11,30,83,032,42,16,66,224,41,31,44,076,41,23,41,308,39*71
$GPGSV,3,2,11,32,26,225,31,20,25,254,31,06,25,164,39,29,19,046,33*77
$GPGSV,3,3,11,03,17,178,37,13,11,315,22,14,06,140,*45
$GPRMC,213641.000,A,4223.7274,N,07230.9306,W,35.24,8.43,130412,,*23
$GPGGA,213642.000,4223.7370,N,07230.9286,W,1,09,0.9,116.8,M,-33.8,M,,0000*62
$GPGSA,A,3,32,30,20,29,03,31,23,06,16,,,,1.8,0.9,1.5*3C
$GPRMC,213642.000,A,4223.7370,N,07230.9286,W,34.98,8.35,130412,,*2B
$GPGGA,213643.000,4223.7466,N,07230.9269,W,1,09,0.9,116.9,M,-33.8,M,,0000*63
$GPGSA,A,3,32,30,20,29,03,31,23,06,16,,,,1.8,0.9,1.5*3C
$GPRMC,213643.000,A,4223.7466,N,07230.9269,W,34.65,6.88,130412,,*21
$GPGGA,213644.000,4223.7561,N,07230.9254,W,1,09,0.9,117.0,M,-33.8,M,,0000*64
$GPGSA,A,3,32,30,20,29,03,31,23,06,16,,,,1.8,0.9,1.5*3C
$GPRMC,213644.000,A,4223.7561,N,07230.9254,W,34.09,5.98,130412,,*26
$GPGGA,213645.000,4223.7656,N,07230.9242,W,1,10,0.8,116.8,M,-33.8,M,,0000*65
$GPGSA,A,3,13,32,30,20,29,03,31,23,06,16,,,1.5,0.8,1.3*34
$GPRMC,213645.000,A,4223.7656,N,07230.9242,W,33.67,5.15,130412,,*2D
$GPGGA,213646.000,4223.7748,N,07230.9233,W,1,10,0.8,116.5,M,-33.8,M,,0000*63
$GPGSA,A,3,13,32,30,20,29,03,31,23,06,16,,,1.5,0.8,1.3*34
$GPGSV,3,1,11,30,83,032,42,16,66,224,41,31,44,076,40,23,41,308,39*70
$GPGSV,3,2,11,32,26,225,34,20,25,254,32,06,25,164,37,29,19,046,32*7E
$GPGSV,3,3,11,03,17,178,38,13,11,315,29,14,06,140,*41
$GPRMC,213646.000,A,4223.7748,N,07230.9233,W,33.04,3.55,130412,,*21
$GPGGA,213647.000,4223.7839,N,07230.9227,W,1,10,0.8,116.3,M,-33.8,M,,0000*68
$GPGSA,A,3,13,32,30,20,29,03,31,23,06,16,,,1.5,0.8,1.3*34
$GPRMC,213647.000,A,4223.7839,N,07230.9227,W,32.44,2.09,130412,,*21
$GPGGA,213648.000,4223.7930,N,07230.9224,W,1,10,0.8,116.0,M,-33.8,M,,0000*6F
$GPGSA,A,3,13,32,30,20,29,03,31,23,06,16,,,1.5,0.8,1.3*34
$GPRMC,213648.000,A,4223.7930,N,07230.9224,W,32.38,0.80,130412,,*2D
$GPGGA,213649.000,4223.8021,N,07230.9224,W,1,10,0.8,115.6,M,-33.8,M,,0000*6D
$GPGSA,A,3,13,32,30,20,29,03,31,23,06,16,,,1.5,0.8,1.3*34
$GPRMC,213649.000,A,4223.8021,N,07230.9224,W,32.81,359.20,130412,,*2D
$GPGGA,213650.000,4223.8113,N,07230.9229,W,1,10,0.8,115.1,M,-33.8,M,,0000*6F
$GPGSA,A,3,13,32,30,20,29,03,31,23,06,16,,,1.5,0.8,1.3*34
$GPRMC,213650.000,A,4223.8113,N,07230.9229,W,33.35,357.27,130412,,*2F
$GPGGA,213651.000,4223.8206,N,07230.9238,W,1,10,0.8,114.6,M,-33.8,M,,0000*6F
$GPGSA,A,3,13,32,30,20,29,03,31,23,06,16,,,1.5,0.8,1.3*34
$GPGSV,3,1,11,30,83,032,41,16,66,224,40,31,44,076,40,23,41,308,37*7C
$GPGSV,3,2,11,32,26,225,32,20,25,254,32,06,25,164,35,29,19,046,33*7B
$GPGSV,3,3,11,03,17,178,37,13,11,315,29,14,06,140,*4E
$GPRMC,213651.000,A,4223.8206,N,07230.9238,W,33.60,354.88,130412,,*2F
$GPGGA,213652.000,4223.8299,N,07230.9252,W,1,10,0.8,114.3,M,-33.8,M,,0000*63
$GPGSA,A,3,13,32,30,20,29,03,31,23,06,16,,,1.5,0.8,1.3*34
$GPRMC,213652.000,A,4223.8299,N,07230.9252,W,33.50,353.47,130412,,*21
$GPGGA,213653.000,4223.8392,N,07230.9267,W,1,10,0.8,114.2,M,-33.8,M,,0000*6F
$GPGSA,A,3,13,32,30,20,29,03,31,23,06,16,,,1.5,0.8,1.3*34
$GPRMC,213653.000,A,4223.8392,N,07230.9267,W,33.08,353.08,130412,,*2A
$GPGGA,213654.000,4223.8482,N,07230.9282,W,1,10,0.8,114.3,M,-33.8,M,,0000*64
$GPGSA,A,3,13,32,30,20,29,03,31,23,06,16,,,1.5,0.8,1.3*34
$GPRMC,213654.000,A,4223.8482,N,07230.9282,W,32.42,353.17,130412,,*21
$GPGGA,213655.000,4223.8570,N,07230.9298,W,1,10,0.8,114.5,M,-33.8,M,,0000*64
$GPGSA,A,3,13,32,30,20,29,03,31,23,06,16,,,1.5,0.8,1.3*34
$GPRMC,213655.000,A,4223.8570,N,07230.9298,W,30.87,353.15,130412,,*2E
$GPGGA,213656.000,4223.8651,N,07230.9312,W,1,10,0.8,114.7,M,-33.8,M,,0000*66
$GPGSA,A,3,13,32,30,20,29,03,31,23,06,16,,,1.5,0.8,1.3*34
$GPGSV,3,1,11,30,83,032,42,16,66,224,40,31,44,076,40,23,41,308,41*7E
$GPGSV,3,2,11,32,26,225,37,20,25,254,36,06,25,164,36,29,19,046,35*7F
$GPGSV,3,3,11,03,17,178,38,13,11,315,32,14,06,140,*4B
$GPRMC,213656.000,A,4223.8651,N,07230.9312,W,28.36,352.94,130412,,*25
$GPGGA,213657.000,4223.8727,N,07230.9326,W,1,10,0.8,115.0,M,-33.8,M,,0000*66
$GPGSA,A,3,13,32,30,20,29,03,31,23,06,16,,,1.5,0.8,1.3*34
$GPRMC,213657.000,A,4223.8727,N,07230.9326,W,26.69,352.45,130412,,*2B
$GPGGA,213658.000,4223.8799,N,07230.9339,W,1,10,0.8,115.3,M,-33.8,M,,0000*61
$GPGSA,A,3,13,32,30,20,29,03,31,23,06,16,,,1.5,0.8,1.3*34
$GPRMC,213658.000,A,4223.8799,N,07230.9339,W,25.59,353.76,130412,,*2E
$GPGGA,213659.000,4223.8868,N,07230.9350,W,1,10,0.8,115.5,M,-33.8,M,,0000*68
$GPGSA,A,3,13,32,30,20,29,03,31,23,06,16,,,1.5,0.8,1.3*34
$GPRMC,213659.000,A,4223.8868,N,07230.9350,W,24.45,353.99,130412,,*2C
$GPGGA,213700.000,4223.8932,N,07230.9360,W,1,10,0.8,115.6,M,-33.8,M,,0000*6B
$GPGSA,A,3,13,32,30,20,29,03,31,23,06,16,,,1.5,0.8,1.3*34
$GPRMC,213700.000,A,4223.8932,N,07230.9360,W,21.98,353.58,130412,,*24
$GPGGA,213701.000,4223.8987,N,07230.9369,W,1,10,0.8,115.7,M,-33.8,M,,0000*6C
$GPGSA,A,3,13,32,30,20,29,03,31,23,06,16,,,1.5,0.8,1.3*34
$GPGSV,3,1,11,30,83,032,42,16,66,224,40,31,44,076,41,23,41,308,41*7F
$GPGSV,3,2,11,32,26,225,37,20,25,254,37,06,25,164,37,29,19,046,36*7C
$GPGSV,3,3,11,03,17,178,38,13,11,315,27,14,06,140,*4F
$GPRMC,213701.000,A,4223.8987,N,07230.9369,W,18.64,353.48,130412,,*2A
$GPGGA,213702.000,4223.9031,N,07230.9377,W,1,10,0.8,115.8,M,-33.8,M,,0000*6A
$GPGSA,A,3,13,32,30,20,29,03,31,23,06,16,,,1.5,0.8,1.3*34
$GPRMC,213702.000,A,4223.9031,N,07230.9377,W,13.95,352.80,130412,,*23
$GPGGA,213703.000,4223.9060,N,07230.9383,W,1,09,0.9,115.7,M,-33.8,M,,0000*62
$GPGSA,A,3,32,30,20,29,03,31,23,06,16,,,,1.8,0.9,1.5*3C
$GPRMC,213703.000,A,4223.9060,N,07230.9383,W,8.37,351.76,130412,,*15
$GPGGA,213704.000,4223.9074,N,07230.9386,W,1,10,0.9,115.6,M,-33.8,M,,0000*6C
$GPGSA,A,3,14,32,30,20,29,03,31,23,06,16,,,1.6,0.9,1.4*36
$GPRMC,213704.000,A,4223.9074,N,07230.9386,W,3.74,351.91,130412,,*17
$GPGGA,213705.000,4223.9079,N,07230.9387,W,1,10,0.9,115.5,M,-33.8,M,,0000*62
$GPGSA,A,3,14,32,30,20,29,03,31,23,06,16,,,1.6,0.9,1.4*36
$GPRMC,213705.000,A,4223.9079,N,07230.9387,W,1.05,356.43,130412,,*16
$GPGGA,213706.000,4223.9079,N,07230.9387,W,1,10,0.9,115.4,M,-33.8,M,,0000*60
$GPGSA,A,3,14,32,30,20,29,03,31,23,06,16,,,1.6,0.9,1.4*36
$GPGSV,3,1,11,30,83,032,41,16,66,224,39,31,44,076,40,23,41,308,41*73
$GPGSV,3,2,11,32,26,225,37,20,25,254,36,06,25,164,38,29,19,046,36*72
$GPGSV,3,3,11,03,17,178,38,13,11,315,,14,06,140,28*40
$GPRMC,213706.000,A,4223.9079,N,07230.9387,W,0.11,9.59,130412,,*13
